"id","biz_name","biz_info","e_address","e_city","e_state","e_postal","e_zip_full","e_country","loc_county","loc_area_code","loc_FIPS","loc_MSA","loc_PMSA","loc_TZ","loc_DST","loc_LAT_centroid","loc_LAT_poly","loc_LONG_centroid","loc_LONG_poly","biz_phone","biz_phone_ext","biz_fax","biz_email","web_url","c_type","c_years","c_setting","c_housing","c_pop","c_ratio","c_tuition"
"1","Alabama A & M University","Bachelor's degree;Master's degree;Post-master's certificate","4900 Meridian St N","Huntsville","AL","35811","","USA","Madison","256","01089","3440","","CST","Y","34.7973","34.78379","-86.5035","-86.572186","(256) 372-5000","","","","http://www.aamu.edu/","Public","4 Years","City: Midsize","Yes","5327","14 to 1",""
"2","Alabama Southern Community College","Less than one year certificate;One but less than two years certificate;Associate's degree","2800 Alabama Ave","Monroeville","AL","36460","","USA","Monroe","251","01099","","","CST","Y","31.5061","31.480637","-87.3956","-87.3325497","(251) 575-3156","8252","","","http://www.ascc.edu","Public","2 Years","Rural: Fringe","No","1431","13 to 1",""
"3","Alabama State College of Barber Styling","One but less than two years certificate","9480 Parkway E","Birmingham","AL","35215","35215-8308","USA","Jefferson","205","01073","1000","","CST","Y","33.6491","33.594958","-86.7024","-86.695814","(205) 836-2404","","","","","Private (For Profit)","Under 2 Years","City: Midsize","No","15","8 to 1",""
"4","Alabama State University","Bachelor's degree;Master's degree;Post-master's certificate","915 S Jackson St","Montgomery","AL","36104","36101-0271","USA","Montgomery","334","01101","5240","","CST","Y","32.3921","32.366287","-86.3187","-86.296902","(334) 229-4400","","(334) 229-4924","admissions@alasu.edu","http://www.alasu.edu","Public","4 Years","City: Midsize","Yes","5564","17 to 1",""
"5","Amridge University","Associate's degree;Bachelor's degree;Master's degree","1200 Taylor Rd","Montgomery","AL","36117","36117-3553","USA","Montgomery","334","01101","5240","","CST","Y","32.3839","32.3821425","-86.1444","-86.1733832","(334) 387-7000","7528","(334) 387-3878","anitacrosby@amridgeuniversity.edu","http://www.amridgeuniversity.edu","Private (Not For Profit)","4 Years","City: Midsize","No","757","10 to 1",""
"6","Athens State University","Bachelor's degree","300 N Beaty St","Athens","AL","35611","","USA","Limestone","256","01083","3440","","CST","Y","34.7987","34.8059672","-86.9993","-86.9675285","(256) 233-8100","","","","http://www.athens.edu","Public","4 Years","Town: Fringe","No","3511","18 to 1",""
"7","Auburn University","Bachelor's degree;Postbaccalaureate certificate;Master's degree;Post-master's certificate","Auburn Alabama","Auburn","AL","36849","","USA","Lee","334","01081","0580","","CST","Y","32.6082","32.6057662","-85.4822","-85.4855422","(334) 844-4000","","","webmaster@auburn.edu ","http://www.auburn.edu","Public","4 Years","City: Small","Yes","24602","18 to 1",""
"8","Auburn University at Montgomery","Bachelor's degree;Master's degree;Post-master's certificate","East Dr","Montgomery","AL","36117","36117-3596","USA","Montgomery","334","01101","5240","","CST","Y","32.3839","32.3666585","-86.1444","-86.1748484","(334) 244-3000","","","askaum@aum.edu","http://www.aum.edu","Public","4 Years","City: Midsize","Yes","5567","18 to 1",""
"9","Bevill State Community College","Less than one year certificate;One but less than two years certificate;Associate's degree","1411 Indiana Ave","Jasper","AL","35501","","USA","Walker","205","01127","","","CST","Y","33.8919","33.8359101","-87.2357","-87.2649434","(205) 387-0511","","","ssullivan@bscc.edu","http://www.bscc.edu","Public","2 Years","Town: Fringe","Yes","4554","19 to 1",""
"10","Birmingham Southern College","Bachelor's degree;Master's degree","900 Arkadelphia Rd","Birmingham","AL","35254","","USA","Jefferson","205","01073","1000","","CST","Y","33.5163","33.516268","-86.8503","-86.850985","(205) 226-4600","","","","http://www.bsc.edu","Private (Not For Profit)","4 Years","City: Midsize","Yes","1549","12 to 1",""
"11","Bishop State Community College","Less than one year certificate;One but less than two years certificate;Associate's degree","351 N Broad St","Mobile","AL","36603","36603-5898","USA","Mobile","251","01097","5160","","CST","Y","30.7025","30.695495","-88.0599","-88.055653","(251) 405-7000","","","hjordan@bishop.edu","http://www.bishop.edu","Public","2 Years","City: Midsize","No","3598","18 to 1",""
"12","Blue Cliff Career College","Less than one year certificate;One but less than two years certificate","2970 Cottage Hill Rd #175","Mobile","AL","36606","","USA","Mobile","251","01097","5160","","CST","Y","30.6703","30.669796","-88.1063","-88.114313","(251) 473-2220","","","bluecliffcareer@gmail.com","http://www.blue.edu","Private (For Profit)","Under 2 Years","City: Midsize","No","220","17 to 1",""
"13","Cardiac and Vascular Institute of Ultrasound","One but less than two years certificate;Two but less than 4 years certificate","1729 Springhill Ave #11","Mobile","AL","36604","","USA","Mobile","251","01097","5160","","CST","Y","30.6824","30.691464","-88.0679","-88.080612","(251) 433-1600","","(251) 433-1605","info@ultrasound.edu","http://www.ultrasound.edu","Private (For Profit)","2 Years","","No","49","9 to 1",""
"14","Central Alabama Community College","Less than one year certificate;One but less than two years certificate;Associate's degree","1675 Cherokee Rd","Alexander City","AL","35010","","USA","Tallapoosa","256","01123","","","CST","Y","32.9346","32.924578","-85.9597","-85.9470712","(256) 234-6346","","(256) 215-4244","","http://www.cacc.edu","Public","2 Years","Rural: Fringe","No","2441","15 to 1",""
"15","Chattahoochee Valley Community College","Less than one year certificate;One but less than two years certificate;Associate's degree","2602 College Dr","Phenix City","AL","36869","","USA","Russell","334","01113","1800","","CST","Y","32.4401","32.428869","-85.0174","-85.029063","(334) 291-4900","","(334) 291.4994","bbadmin@cv.edu","http://www.cv.edu","Public","2 Years","Suburb: Midsize","No","1902","19 to 1",""
"16","Columbia Southern University","Less than one year certificate;Associate's degree;Bachelor's degree;Postbaccalaureate certificate;Master's degree","21982 University Lane","Orange Beach","AL","36561","36561-9000","USA","Baldwin","251","01003","5160","","CST","Y","30.2789","30.2943681","-87.6082","-87.5735935","(251) 981-3771","1364","(251) 981-3815","info@columbiasouthern.edu","http://www.columbiasouthern.edu","Private (For Profit)","4 Years","","No","13321","50 to 1",""
"17","Community College of the Air Force","Associate's degree;Two but less than 4 years certificate","100 Turner Blvd","Montgomery","AL","36114","36114-0011","USA","Montgomery","334","01101","5240","","CST","Y","32.4045","32.3605299","-86.2459","-86.34766","(334) 649-5000","","","","http://www.au.af.mil/au/ccaf/","Public","2 Years","City: Midsize","Yes","","",""
"18","Concordia College-Selma","Associate's degree;Bachelor's degree","1804 Green St","Selma","AL","36703","","USA","Dallas","334","01047","","","CST","Y","32.4554","32.4254","-86.9821","-87.0177","(334) 526-9141","","","admissions@concordiaselma.edu","http://www.concordiaselma.edu","Private (Not For Profit)","4 Years","Town: Remote","Yes","568","22 to 1",""
"19","Enterprise State Community College","Less than one year certificate;One but less than two years certificate;Associate's degree","600 Plaza Dr","Enterprise","AL","36330","36330-1300","USA","Coffee","334","01031","","","CST","Y","31.4127","31.2993334","-85.8669","-85.8347823","(334) 347-2623","","","","http://www.escc.edu","Public","2 Years","Rural: Fringe","No","2833","17 to 1",""
"20","Faulkner University","Associate's degree;Bachelor's degree;Master's degree","5345 Atlanta Hwy","Montgomery","AL","36109","36109-3378","USA","Montgomery","334","01101","5240","","CST","Y","32.3862","32.38258","-86.2391","-86.218042","(334) 272-5820","","","","http://www.faulkner.edu","Private (Not For Profit)","4 Years","City: Midsize","Yes","3272","14 to 1",""
"21","Fortis College","One but less than two years certificate","200 Vulcan Way","Dothan","AL","36303","","USA","Houston","334","01069","2180","","CST","Y","31.2710","31.242771","-85.3923","-85.374279","(334) 677-2832","","","","http://www.fortiscollege.edu","Private (For Profit)","Under 2 Years","","No","69","10 to 1",""
"22","Fortis College","One but less than two years certificate;Associate's degree","3736 Atlanta Hwy","Montgomery","AL","36109","","USA","Montgomery","334","01101","5240","","CST","Y","32.3862","32.383619","-86.2391","-86.251857","(334) 272-3857","","","","http://www.fortiscollege.edu","Private (For Profit)","2 Years","","No","486","43 to 1",""
"23","Fortis College","One but less than two years certificate","914 N McKenzie St","Foley","AL","36535","","USA","Baldwin","251","01003","5160","","CST","Y","30.3794","30.416382","-87.7151","-87.683274","(251) 970-1460","","","","http://www.fortis.edu/foley.php","Private (For Profit)","Under 2 Years","Town: Distant","No","125","30 to 1",""
"24","Fortis College","One but less than two years certificate;Associate's degree","3590 Pleasant Valley Rd","Mobile","AL","36609","","USA","Mobile","251","01097","5160","","CST","Y","30.6619","30.662175","-88.1626","-88.135283","(251) 344-1203","3111","","","http://www.fortiscollege.edu","Private (For Profit)","2 Years","City: Midsize","No","200","22 to 1",""
"25","Fortis College School of Cosmetology","Less than one year certificate;One but less than two years certificate","300 Azalea Rd","Mobile","AL","36609","","USA","Mobile","251","01097","5160","","CST","Y","30.6619","30.6728721","-88.1626","-88.1485588","(251) 342-3230","","","","","Private (For Profit)","Under 2 Years","","No","225","20 to 1",""
"26","Gadsden State Community College","Less than one year certificate;One but less than two years certificate;Associate's degree","1001 George Wallace Dr","Gadsden","AL","35903","","USA","Etowah","256","01055","2880","","CST","Y","34.0158","33.9952733","-85.8342","-85.9900405","(256) 549-8200","","","","http://www.gadsdenstate.edu","Public","2 Years","City: Small","Yes","6917","22 to 1",""
"27","George C Wallace Community College-Dothan","Less than one year certificate;One but less than two years certificate;Associate's degree","1141 Wallace Dr","Dothan","AL","36350","36303-9234","USA","Dale","334","01045","2180","","CST","Y","31.3982","31.315923","-85.5024","-85.467964","(334) 983-3521","","","","http://www.wallace.edu","Public","2 Years","City: Small","No","4653","25 to 1",""
"28","George C Wallace State Community College-Hanceville","Less than one year certificate;One but less than two years certificate;Associate's degree","801 Main St","Hanceville","AL","35077","35077-2000","USA","Cullman","256","01043","","","CST","Y","34.0311","34.0724716","-86.8105","-86.7808332","(256) 352-8000","","","","http://www.wallacestate.edu","Public","2 Years","Rural: Fringe","Yes","6311","23 to 1",""
"29","George C Wallace State Community College-Selma","Less than one year certificate;One but less than two years certificate;Associate's degree","3000 Earl Goodwin Pkwy","Selma","AL","36703","36703-2808","USA","Dallas","334","01047","","","CST","Y","32.4554","32.439296","-86.9821","-87.0145133","(334) 876-9227","","","","http://www.wccs.edu","Public","2 Years","Rural: Fringe","No","1938","23 to 1",""
"30","H Councill Trenholm State Technical College","Less than one year certificate;One but less than two years certificate;Associate's degree","1225 Air Base Blvd","Montgomery","AL","36108","36108-3199","USA","Montgomery","334","01101","5240","","CST","Y","32.3488","32.350042","-86.4016","-86.343146","(334) 420-4200","","","","http://www.trenholmstate.edu","Public","2 Years","City: Midsize","No","1733","13 to 1",""
"31","Heritage Christian University","Associate's degree;Bachelor's degree;Master's degree","3625 Helton Dr","Florence","AL","35630","35630-9977","USA","Lauderdale","256","01077","2650","","CST","Y","34.8931","34.8561377","-87.6376","-87.6629836","(256) 766-6610","","","","http://www.hcu.edu","Private (Not For Profit)","4 Years","Rural: Fringe","Yes","111","9 to 1",""
"32","Herzing University","One but less than two years certificate;Associate's degree;Bachelor's degree","280 W Valley Ave","Birmingham","AL","35209","","USA","Jefferson","205","01073","1000","","CST","Y","33.4650","33.4697299","-86.8113","-86.8277935","(205) 916-2800","","","","http://www.herzing.edu/birmingham","Private (For Profit)","Under 2 Years","Suburb: Large","No","425","13 to 1",""
"33","Huntingdon College","Bachelor's degree","1500 E Fairview Ave","Montgomery","AL","36106","36106-2148","USA","Montgomery","334","01101","5240","","CST","Y","32.3501","32.349981","-86.2395","-86.284951","(334) 833-4222","","","","http://www.huntingdon.edu","Private (Not For Profit)","4 Years","City: Midsize","Yes","1075","13 to 1",""
"34","Huntsville Bible College","One but less than two years certificate;Associate's degree;Bachelor's degree","904 Oakwood Ave NW","Huntsville","AL","35811","35811-1632","USA","Madison","256","01089","3440","","CST","Y","34.7973","34.750345","-86.5035","-86.594623","(256) 539-0834","","","","http://www.hbc1.edu","Private (Not For Profit)","Under 2 Years","City: Midsize","No","72","10 to 1",""
"35","ITT Technical Institute-Bessemer","Associate's degree;Bachelor's degree","6270 Park S Dr","Bessemer","AL","35022","","USA","Jefferson","205","01073","1000","","CST","Y","33.4335","33.33887","-86.9037","-86.915398","(205) 497-5700","","","","http://www.itt-tech.edu","Private (For Profit)","Under 2 Years","Rural: Fringe","No","1159","30 to 1",""
"36","ITT Technical Institute - Madison","Associate's degree;Bachelor's degree","9238 Madison Blvd #500","Madison","AL","35758","","USA","Madison","256","01089","3440","","CST","Y","34.6731","34.674317","-86.8135","-86.762552","(256) 542-2900","","","","http://www.itt-tech.edu","Private (For Profit)","Under 2 Years","","No","388","19 to 1",""
"37","ITT Technical Institute-Mobile","Associate's degree;Bachelor's degree","3100 Cottage Hill Rd","Mobile","AL","36606","","USA","Mobile","251","01097","5160","","CST","Y","30.6703","30.669109","-88.1063","-88.120879","(251) 472-4760","","","","http://www.itt-tech.edu","Private (For Profit)","Under 2 Years","City: Midsize","No","298","17 to 1",""
"38","J F Drake State Technical College","Less than one year certificate;One but less than two years certificate;Associate's degree","3421 Meridian St N","Huntsville","AL","35811","","USA","Madison","256","01089","3440","","CST","Y","34.7973","34.7707819","-86.5035","-86.575943","(256) 539-8161","","","","http://www.drakestate.edu","Public","2 Years","City: Midsize","No","1258","16 to 1",""
"39","J F Ingram State Technical College","Less than one year certificate;One but less than two years certificate;Associate's degree","5375 Ingram Rd","Deatsville","AL","36022","","USA","Elmore","334","01051","5240","","CST","Y","32.6460","32.5812529","-86.3624","-86.3909937","(334) 285-5177","349","","","http://www.ingram.cc.al.us","Public","2 Years","Rural: Distant","Yes","543","13 to 1",""
"40","Jacksonville State University","Bachelor's degree;Postbaccalaureate certificate;Master's degree;Post-master's certificate","700 Pelham Rd N","Jacksonville","AL","36265","","USA","Calhoun","256","01015","0450","","CST","Y","33.8478","33.8235048","-85.7765","-85.7633394","(256) 782-5781","","","","http://www.jsu.edu/","Public","4 Years","Suburb: Small","Yes","9351","20 to 1",""
"41","James H Faulkner State Community College","Less than one year certificate;One but less than two years certificate;Associate's degree","1900 S Us Highway 31","Bay Minette","AL","36507","36507-2698","USA","Baldwin","251","01003","5160","","CST","Y","30.8772","30.855867","-87.7146","-87.77877","(251) 580-2100","","","","http://www.faulknerstate.edu","Public","2 Years","Town: Distant","Yes","4355","28 to 1",""
"42","Jefferson Davis Community College","Less than one year certificate;One but less than two years certificate;Associate's degree","220 Alco Dr","Brewton","AL","36426","","USA","Escambia","251","01053","","","CST","Y","31.1650","31.1007455","-87.0243","-87.0847966","(251) 867-4832","","","","http://www.jdcc.edu","Public","2 Years","Town: Distant","Yes","1433","18 to 1",""
"43","Jefferson State Community College","Less than one year certificate;One but less than two years certificate;Associate's degree","2601 Carson Rd","Birmingham","AL","35215","35215-3098","USA","Jefferson","205","01073","1000","","CST","Y","33.6491","33.651507","-86.7024","-86.708243","(205) 853-1200","","","","http://www.jeffstateonline.com","Public","2 Years","City: Midsize","No","8581","20 to 1",""
"44","John C Calhoun State Community College","Less than one year certificate;One but less than two years certificate;Associate's degree","6250 Us Highway 31","Tanner","AL","35671","","USA","Limestone","256","01083","3440","","CST","Y","34.6930","34.63955","-86.9865","-86.94871","(256) 306-2500","","","","http://www.calhoun.edu","Public","2 Years","Rural: Fringe","No","11212","26 to 1",""
"45","Judson College","Bachelor's degree","302 Bibb St","Marion","AL","36756","","USA","Perry","334","01105","","","CST","Y","32.6685","32.6309407","-87.3424","-87.316701","(334) 683-5100","","","","http://www.judson.edu","Private (Not For Profit)","4 Years","Rural: Remote","Yes","313","8 to 1",""
"46","Lawson State Community College-Birmingham Campus","Less than one year certificate;One but less than two years certificate;Associate's degree","3060 Wilson Rd SW","Birmingham","AL","35221","35221-1717","USA","Jefferson","205","01073","1000","","CST","Y","33.4523","33.451189","-86.8939","-86.889298","(205) 925-2515","","","","http://www.lawsonstate.edu","Public","2 Years","City: Midsize","Yes","4353","23 to 1",""
"47","Lurleen B Wallace Community College","Less than one year certificate;One but less than two years certificate;Associate's degree","1000 Dannelly Blvd.","Andalusia","AL","36420","36420-1418","USA","Covington","334","01039","","","CST","Y","31.1836","31.3085039","-86.5372","-86.4832913","(334) 222-6591","","","","http://www.lbwcc.edu","Public","2 Years","Town: Remote","No","1790","20 to 1",""
"48","Marion Military Institute","Associate's degree","1101 Washington St","Marion","AL","36756","","USA","Perry","334","01105","","","CST","Y","32.6685","32.6259243","-87.3424","-87.3187948","(800) 664-1842","","","","http://www.marionmilitary.edu","Public","2 Years","Rural: Remote","Yes","511","22 to 1",""
"49","Miles College","Bachelor's degree","5500 Myron Massey Blvd","Fairfield","AL","35064","35064-2621","USA","Jefferson","205","01073","1000","","CST","Y","33.4745","33.480865","-86.9193","-86.908232","(205) 929-1000","1645","","","http://www.miles.edu","Private (Not For Profit)","4 Years","Suburb: Large","Yes","1791","16 to 1",""
"50","Northeast Alabama Community College","Less than one year certificate;One but less than two years certificate;Associate's degree;Two but less than 4 years certificate","138 Alabama 35","Rainsville","AL","35986","","USA","De Kalb","256","01049","","","CST","Y","34.5004","34.494908","-85.8413","-85.8488784","(205) 638-4418","234","","","http://www.nacc.edu","Public","2 Years","Rural: Distant","No","3370","24 to 1",""
"51","Northwest Shoals Community College-Muscle Shoals","Less than one year certificate;One but less than two years certificate;Associate's degree","800 George Wallace Blvd","Muscle Shoals","AL","35674","","USA","Colbert","256","01033","2650","","CST","Y","34.6544","34.7397565","-87.6611","-87.6793821","(256) 331-5200","","","","http://www.nwscc.edu","Public","2 Years","City: Small","Yes","4520","22 to 1",""
"52","Oakwood University","Associate's degree;Bachelor's degree;Postbaccalaureate certificate;Master's degree","7000 Adventist Blvd NW","Huntsville","AL","35896","","USA","Madison","256","01089","3440","","CST","Y","34.6626","34.7514048","-86.7524","-86.6535138","(256) 726-7000","","","","http://www.oakwood.edu","Private (Not For Profit)","4 Years","City: Midsize","Yes","1916","13 to 1",""
"53","Paul Mitchell the School-Huntsville","One but less than two years certificate","3810 Sullivan St","Madison","AL","35758","","USA","Madison","256","01089","3440","","CST","Y","34.6731","34.681299","-86.8135","-86.752492","(256) 464-8886","","","","http://www.pmtshuntsville.com","Private (For Profit)","Under 2 Years","","No","","",""
"54","Prince Institute of Professional Studies Inc","One but less than two years certificate;Associate's degree","7735 Atlanta Hwy","Montgomery","AL","36117","","USA","Montgomery","334","01101","5240","","CST","Y","32.3839","32.383102","-86.1444","-86.1623989","(334) 271-1670","203","","","http://www.princeinstitute.edu","Private (For Profit)","2 Years","City: Midsize","No","63","13 to 1",""
"55","Reid State Technical College","Less than one year certificate;One but less than two years certificate;Associate's degree","Alabama 3 &amp; Alabama 83","Evergreen","AL","36401","","USA","Conecuh","251","01035","","","CST","Y","31.4945","31.4341822","-86.9123","-86.9546039","(251) 578-1313","","","","http://www.rstc.cc.al.us","Public","2 Years","Rural: Remote","No","760","19 to 1",""
"56","Remington College-Mobile Campus","Less than one year certificate;One but less than two years certificate;Associate's degree","828 Downtowner Loop W","Mobile","AL","36609","","USA","Mobile","251","01097","5160","","CST","Y","30.6619","30.6723592","-88.1626","-88.1444579","(251) 343-8200","","","","http://www.remingtoncollege.edu/mobile-alabama-colleges-campus","Private (For Profit)","2 Years","City: Midsize","No","555","23 to 1",""
"57","Samford University","One but less than two years certificate;Associate's degree;Bachelor's degree;Master's degree;Post-master's certificate","800 Lakeshore Dr","Birmingham","AL","35229","35229-2240","USA","Jefferson","205","01073","1000","","CST","Y","33.4639","33.4629574","-86.7938","-86.7906482","(205) 726-2011","","","","http://www.samford.edu","Private (Not For Profit)","4 Years","Suburb: Large","Yes","4658","12 to 1",""
"58","Selma University","Associate's degree;Bachelor's degree;Master's degree","1501 Lapsley St Dinkins Hall","Selma","AL","36701","","USA","Dallas","334","01047","","","CST","Y","32.4494","32.4073589","-87.0178","-87.0211007","(334) 872-2533","","","","http://www.selmauniversity.org","Private (Not For Profit)","4 Years","","Yes","35","9 to 1",""
"59","Shelton State Community College","Less than one year certificate;One but less than two years certificate;Associate's degree","9500 Old Greensboro Rd","Tuscaloosa","AL","35405","35405-8522","USA","Tuscaloosa","205","01125","8600","","CST","Y","33.1197","33.1211614","-87.5295","-87.5616302","(205) 391-2211","","","","http://www.sheltonstate.edu","Public","2 Years","Rural: Fringe","No","5808","29 to 1",""
"60","Snead State Community College","Less than one year certificate;One but less than two years certificate;Associate's degree","220 N Walnut St","Boaz","AL","35957","35957-0734","USA","Marshall","256","01095","","","CST","Y","34.1534","34.200812","-86.1537","-86.168142","(256) 593-5120","","","","http://www.snead.edu","Public","2 Years","Town: Fringe","Yes","2483","32 to 1",""
"61","South University-Montgomery","Associate's degree;Bachelor's degree;Master's degree","5355 Vaughn Rd","Montgomery","AL","36116","36116-1120","USA","Montgomery","334","01101","5240","","CST","Y","32.2358","32.3422317","-86.2037","-86.2164931","(334) 395-8800","","","","http://www.southuniversity.edu","Private (For Profit)","Under 2 Years","City: Midsize","Yes","661","14 to 1",""
"62","Southeastern Bible College","One but less than two years certificate;Associate's degree;Bachelor's degree","2545 Valleydale Rd","Birmingham","AL","35244","35224-2083","USA","Jefferson","205","01073","1000","","CST","Y","33.3655","33.378764","-86.7846","-86.749761","(205) 970-9200","","","","http://www.sebc.edu","Private (Not For Profit)","4 Years","Suburb: Large","Yes","203","14 to 1",""
"63","Southeastern School of Cosmetology","Less than one year certificate;One but less than two years certificate","849 Dennison Ave SW #101","Birmingham","AL","35211","35211-3865","USA","Jefferson","205","01073","1000","","CST","Y","33.4593","33.4805864","-86.8623","-86.8437292","(205) 323-1011","","","","http://www.southeasternschoolofcosmetology.com","Private (Not For Profit)","Under 2 Years","City: Midsize","No","118","20 to 1",""
"64","Southern Union State Community College","Less than one year certificate;One but less than two years certificate;Associate's degree","750 Roberts St","Wadley","AL","36276","","USA","Randolph","256","01111","","","CST","Y","33.1661","33.1265278","-85.5111","-85.571373","(256) 395-2211","","","","http://www.suscc.edu","Public","2 Years","Rural: Remote","Yes","5111","26 to 1",""
"65","Spring Hill College","Less than one year certificate;One but less than two years certificate;Bachelor's degree;Postbaccalaureate certificate;Master's degree;Post-master's certificate","4000 Dauphin St","Mobile","AL","36608","36608-1791","USA","Mobile","251","01097","5160","","CST","Y","30.6830","30.6857861","-88.2974","-88.1479001","(251) 380-4000","","","","http://www.shc.edu","Private (Not For Profit)","4 Years","City: Midsize","Yes","1521","13 to 1",""
"66","Stillman College","Bachelor's degree","3601 Stillman Blvd","Tuscaloosa","AL","35401","","USA","Tuscaloosa","205","01125","8600","","CST","Y","33.1664","33.2008964","-87.6118","-87.5828706","(205) 349-4240","","","","http://www.stillman.edu","Private (Not For Profit)","4 Years","City: Small","Yes","1041","19 to 1",""
"67","Strayer Alabama","Less than one year certificate;One but less than two years certificate;Associate's degree;Bachelor's degree;Postbaccalaureate certificate;Master's degree","3570 Grandview Pkwy #200","Birmingham","AL","35243","","USA","Jefferson","205","01073","1000","","CST","Y","33.4420","33.4379611","-86.7395","-86.7182863","(888) 378-7293","","","","","Private (For Profit)","4 Years","","No","","",""
"68","Strayer University-Huntsville Campus","Less than one year certificate;One but less than two years certificate;Associate's degree;Bachelor's degree;Postbaccalaureate certificate;Master's degree","4955 Corporate Dr NW #200","Huntsville","AL","35805","","USA","Madison","256","01089","3440","","CST","Y","34.7068","34.732064","-86.6180","-86.656046","(256) 665-9800","","","","http://www.strayer.edu","Private (For Profit)","4 Years","","No","","",""
"69","Talladega College","Bachelor's degree","627 W Battle St","Talladega","AL","35160","","USA","Talladega","256","01121","","","CST","Y","33.3836","33.4327492","-86.0578","-86.113582","(256) 761-6100","","","","http://www.talladega.edu","Private (Not For Profit)","4 Years","Town: Distant","Yes","700","18 to 1",""
"70","The University of Alabama","Bachelor's degree;Master's degree;Post-master's certificate","739 University Blvd","Tuscaloosa","AL","35401","35487-0166","USA","Tuscaloosa","205","01125","8600","","CST","Y","33.1664","33.2095895","-87.6118","-87.5463679","(205) 348-6010","","","","http://www.ua.edu/","Public","4 Years","City: Midsize","Yes","28699","20 to 1",""
"71","Tri-State Institute","Less than one year certificate;One but less than two years certificate;Associate's degree;Two but less than 4 years certificate","150 London Pkwy","Birmingham","AL","35211","","USA","Jefferson","205","01073","1000","","CST","Y","33.4593","33.441493","-86.8623","-86.862747","(205) 940-7800","4911","","","","Private (For Profit)","2 Years","","No","155","6 to 1",""
"72","Troy University","Associate's degree;Bachelor's degree;Master's degree;Post-master's certificate","University Ave","Troy","AL","36082","36082-0001","USA","Pike","334","01109","","","CST","Y","31.8086","31.7983394","-85.9701","-85.9572618","(334) 670-3100","","","","http://www.troy.edu","Public","4 Years","Town: Distant","Yes","29328","22 to 1",""
"73","Troy University-Dothan Campus","Associate's degree;Bachelor's degree;Master's degree;Post-master's certificate","500 University Dr","Dothan","AL","36303","36303-4419","USA","Houston","334","01069","2180","","CST","Y","31.2710","31.2845959","-85.3923","-85.4699735","(334) 983-6556","","","","http://www.dothan.troy.edu","Public","4 Years","","No","","",""
"74","Troy University-eCampus","Associate's degree;Bachelor's degree;Master's degree","1101 S Brundidge St","Troy","AL","36081","36082-5327","USA","Pike","334","01109","","","CST","Y","31.8014","31.7930069","-85.9819","-85.9656976","(334) 670-5876","","","","http://www.troy.edu/ecampus/","Public","4 Years","","No","","",""
"75","Troy University-Montgomery Campus","Associate's degree;Bachelor's degree;Master's degree;Post-master's certificate","231 Montgomery St","Montgomery","AL","36104","36103-4419","USA","Montgomery","334","01101","5240","","CST","Y","32.3921","32.376401","-86.3187","-86.31104","(334) 834-1400","","","","http://www.montgomery.troy.edu","Public","4 Years","","No","","",""
"76","Troy University-Phenix City Campus","Bachelor's degree;Master's degree;Post-master's certificate","1 University Pl","Phenix City","AL","36869","36869-4419","USA","Russell","334","01113","1800","","CST","Y","32.4401","32.4236562","-85.0174","-85.0299261","(334) 448-5100","","","","http://www.phenix.troy.edu","Public","4 Years","","No","","",""
"77","Tuskegee University","Bachelor's degree;Master's degree","Kresge Center 3rd Floor","Tuskegee","AL","36088","36088-1920","USA","Macon","334","01087","","","CST","Y","32.4150","32.419054","-85.7166","-85.7199401","(334) 727-8011","","","","http://www.tuskegee.edu","Private (Not For Profit)","4 Years","Town: Distant","Yes","2931","12 to 1",""
"78","United States Sports Academy","Bachelor's degree;Master's degree","1 Academy Dr","Daphne","AL","36526","36526-7055","USA","Baldwin","251","01003","5160","","CST","Y","30.6100","30.640039","-87.8610","-87.912025","(251) 626-3303","7144","","","http://www.ussa.edu","Private (Not For Profit)","4 Years","Town: Fringe","No","653","16 to 1",""
"79","University of Alabama at Birmingham","One but less than two years certificate;Two but less than 4 years certificate;Bachelor's degree;Postbaccalaureate certificate;Master's degree;Post-master's certificate","Administration Bldg #1070","Birmingham","AL","35233","35294-0110","USA","Jefferson","205","01073","1000","","CST","Y","33.5089","33.5056339","-86.8014","-86.7992005","(205) 934-4011","","","","http://www.uab.edu","Public","4 Years","City: Midsize","Yes","16874","17 to 1",""
"80","University of Alabama in Huntsville","Bachelor's degree;Postbaccalaureate certificate;Master's degree;Post-master's certificate","301 Sparkman Dr NW","Huntsville","AL","35805","","USA","Madison","256","01089","3440","","CST","Y","34.7068","34.726024","-86.6180","-86.64402","(256) 824-6120","","","","http://www.uah.edu","Public","4 Years","City: Midsize","Yes","7681","17 to 1",""
"81","University of Mobile","Associate's degree;Bachelor's degree;Master's degree","5735 Parkway St E","Mobile","AL","36608","36613-2842","USA","Mobile","251","01097","5160","","CST","Y","30.6830","30.693401","-88.2974","-88.159863","(251) 675-5990","","","","http://www.umobile.edu","Private (Not For Profit)","4 Years","Suburb: Large","Yes","1570","12 to 1",""
"82","University of Montevallo","Bachelor's degree;Master's degree;Post-master's certificate","Oliver Cromwell Carmichael Library, Highland Avenue Sta 6100","Montevallo","AL","35115","35115-6000","USA","Shelby","205","01117","1000","","CST","Y","33.1388","33.1044662","-86.8879","-86.8614829","(205) 665-6155","","","","http://www.montevallo.edu","Public","4 Years","Town: Fringe","Yes","3044","16 to 1",""
"83","University of North Alabama","Bachelor's degree;Master's degree;Post-master's certificate","One Harrison Plaza","Florence","AL","35632","35632-0001","USA","Lauderdale","256","01077","2650","","CST","Y","34.8399","34.8728024","-87.6065","-87.5441798","(256) 765-4100","","","","http://www.una.edu","Public","4 Years","City: Small","Yes","7194","22 to 1",""
"84","University of Phoenix-Birmingham Campus","Bachelor's degree;Master's degree","100 Corporate Pkwy #150","Birmingham","AL","35242","35242-2982","USA","Shelby","205","01117","1000","","CST","Y","33.3752","33.417329","-86.7086","-86.683309","(205) 421-1200","","","","http://www.phoenix.edu","Private (For Profit)","4 Years","City: Small","No","440","17 to 1",""
"85","University of South Alabama","Less than one year certificate;One but less than two years certificate;Two but less than 4 years certificate;Bachelor's degree;Postbaccalaureate certificate;Master's degree;Post-master's certificate","307 N University Blvd","Mobile","AL","36688","36688-0002","USA","Mobile","251","01097","5160","","CST","Y","30.6901","30.6948695","-88.1879","-88.1740073","(251) 460-6101","","","","http://www.southalabama.edu","Public","4 Years","City: Midsize","Yes","14522","22 to 1",""
"86","University of West Alabama","Associate's degree;Bachelor's degree;Master's degree","Station One","Livingston","AL","35470","","USA","Sumter","205","01119","","","CST","Y","32.5804","32.5843025","-88.1249","-88.1872475","(205) 652-3400","","","","http://www.uwa.edu","Public","4 Years","Rural: Remote","Yes","5157","19 to 1",""
"87","Virginia College-Birmingham","One but less than two years certificate;Associate's degree;Two but less than 4 years certificate;Bachelor's degree;Master's degree","488 Palisades Blvd","Birmingham","AL","35209","","USA","Jefferson","205","01073","1000","","CST","Y","33.4650","33.4709484","-86.8113","-86.8165665","(205) 802-1200","1186","","","http://www.vc.edu","Private (For Profit)","Under 2 Years","Suburb: Large","No","7060","29 to 1",""
"88","Virginia College-Huntsville","Less than one year certificate;One but less than two years certificate;Associate's degree;Bachelor's degree","2800 Bob Wallace Ave SW","Huntsville","AL","35805","35805-9945","USA","Madison","256","01089","3440","","CST","Y","34.7068","34.713078","-86.6180","-86.604409","(256) 533-7387","","","","http://www.WWW.VC.EDU","Private (For Profit)","Under 2 Years","City: Midsize","No","934","14 to 1",""
"89","Virginia College-Mobile","One but less than two years certificate;Associate's degree","3725 Airport Blvd #165","Mobile","AL","36608","","USA","Mobile","251","01097","5160","","CST","Y","30.6830","30.6760326","-88.2974","-88.1343987","(251) 378-3052","","","","http://www.vc.edu","Private (For Profit)","2 Years","City: Midsize","No","737","15 to 1",""
"90","Virginia College-Montgomery","One but less than two years certificate;Associate's degree","6200 Atlanta Hwy","Montgomery","AL","36117","36117-2800","USA","Montgomery","334","01101","5240","","CST","Y","32.3839","32.382175","-86.1444","-86.1914386","(334) 277-3390","2901","","","","Private (For Profit)","2 Years","","No","1012","20 to 1",""
"91","Xcell Academy-A Paul Mitchell Partner School","Less than one year certificate;One but less than two years certificate","1694 Montgomery Hwy #124","Hoover","AL","35226","","USA","Jefferson","205","01073","1000","","CST","Y","33.3969","33.387858","-86.8396","-86.807744","(205) 824-4442","","","","http://www.xcell.paulmitchell.edu/hoover-al","Private (For Profit)","Under 2 Years","","No","112","20 to 1",""
"92","Alaska Bible College","Less than one year certificate;One but less than two years certificate;Associate's degree;Bachelor's degree","College Rd","Glennallen","AK","99588","","USA","Valdez Cordova","907","02261","","","PST-1","Y","62.0950","62.1129619","-146.4030","-145.5321098","(822) 320-1221","","","","http://www.akbible.edu/","Private (Not For Profit)","4 Years","","Yes","","",""
"93","Alaska Christian College","One but less than two years certificate;Two but less than 4 years certificate","35109 Royal Pl","Soldotna","AK","99669","","USA","Kenai Peninsula","907","02122","","","PST-1","Y","60.4453","60.4893038","-151.1785","-151.1340903","(907) 260-7422","","","","http://www.akcc.org","Private (Not For Profit)","2 Years","","Yes","38","12 to 1",""
"94","Alaska Pacific University","One but less than two years certificate;Associate's degree;Bachelor's degree;Postbaccalaureate certificate;Master's degree","4101 University Dr","Anchorage","AK","99508","","USA","Anchorage","907","02020","0380","","PST-1","Y","61.1980","61.188453","-149.8115","-149.805654","(907) 561-1266","","","","http://www.alaskapacific.edu","Private (Not For Profit)","4 Years","City: Large","Yes","781","8 to 1",""
"95","AVTEC-Alaska's Institute of Technology","Less than one year certificate;One but less than two years certificate","809 2nd Ave","Seward","AK","99664","99664-0889","USA","Kenai Peninsula","907","02122","","","PST-1","Y","60.3044","60.1108514","-148.7177","-149.4440516","(907) 224-3322","","","","http://www.avtec.edu/","Public","Under 2 Years","Rural: Remote","Yes","820","15 to 1",""
"96","Career Academy","Less than one year certificate;One but less than two years certificate","1415 E Tudor Rd","Anchorage","AK","99503","99507-1033","USA","Anchorage","907","02020","0380","","PST-1","Y","61.1877","61.1808481","-149.8890","-149.8597549","(907) 563-7575","136","","","http://www.careeracademy.edu","Private (For Profit)","Under 2 Years","City: Large","No","410","21 to 1",""
"97","Charter College","One but less than two years certificate;Associate's degree;Bachelor's degree","2221 E Northern Lights Blvd #120","Anchorage","AK","99508","","USA","Anchorage","907","02020","0380","","PST-1","Y","61.1980","61.19644","-149.8115","-149.839958","(907) 277-1000","","","","http://www.chartercollege.edu","Private (For Profit)","Under 2 Years","City: Large","No","1132","19 to 1",""
"98","Ilisagvik College","Less than one year certificate;One but less than two years certificate;Associate's degree","Narl Facility","Barrow","AK","99723","","USA","North Slope","907","02185","","","PST-1","Y","71.2947","71.2852706","-156.7784","-156.7369232","(907) 852-3333","","","","http://www.ilisagvik.cc","Public","2 Years","Rural: Remote","Yes","226","6 to 1",""
"99","Prince William Sound Community College","Less than one year certificate;One but less than two years certificate;Associate's degree","303 Lowe St","Valdez","AK","99686","99686-0097","USA","Valdez Cordova","907","02261","","","PST-1","Y","61.2403","61.1339189","-145.9943","-146.3599781","(907) 834-1600","","","","http://www.pwscc.edu","Public","2 Years","Rural: Remote","Yes","594","14 to 1",""
"100","University of Alaska Anchorage","Less than one year certificate;One but less than two years certificate;Associate's degree;Bachelor's degree;Postbaccalaureate certificate;Master's degree;Post-master's certificate","3211 Providence Dr","Anchorage","AK","99508","","USA","Anchorage","907","02020","0380","","PST-1","Y","61.1980","61.1897226","-149.8115","-149.8219165","(907) 786-1800","","","","http://www.uaa.alaska.edu","Public","4 Years","City: Large","Yes","17276","15 to 1",""
"101","University of Alaska Fairbanks","Less than one year certificate;One but less than two years certificate;Associate's degree;Bachelor's degree;Postbaccalaureate certificate;Master's degree","505 S Chandalar","Fairbanks","AK","99709","99775-7500","USA","Fairbanks North Star","907","02090","","","PST-1","Y","65.0735","64.8577796","-148.4493","-147.8244483","(907) 474-7211","","","","http://www.uaf.edu","Public","4 Years","Suburb: Small","Yes","9137","12 to 1",""
"102","University of Alaska Southeast","Less than one year certificate;One but less than two years certificate;Associate's degree;Bachelor's degree;Postbaccalaureate certificate;Master's degree","11120 Glacier Hwy","Juneau","AK","99801","99801-8697","USA","Juneau","907","02110","","","PST-1","Y","58.7790","58.383","-134.5653","-134.639","(877) 465-4827","","","","http://www.uas.alaska.edu","Public","4 Years","Town: Remote","Yes","3260","12 to 1",""
"103","American Samoa Community College","One but less than two years certificate;Associate's degree","P.O. Box 2609","Pago Pago","AS","96799","96799-2609","USA","American Samoa","","60050","","","PST-3","N","-14.2702","14.2702","-170.7003","170.7003","(684) 699-9155","412","","","http://www.amsamoa.edu","Public","2 Years","","No","2189","19 to 1",""
"104","All Beauty College","One but less than two years certificate","1385 E Gemini St","Fort Mohave","AZ","86426","86426-8326","USA","Mohave","928","04015","4120","","MST","N","35.0028","35.021581","-114.5797","-114.60101","(928) 763-3900","","","","http://www.allbeautycollege.com","Private (For Profit)","Under 2 Years","","No","","",""
"105","American Indian College of the Assemblies of God Inc","Associate's degree;Bachelor's degree","10020 N 15th Ave","Phoenix","AZ","85021","","USA","Maricopa","602","04013","6200","","MST","N","33.5597","33.577595","-112.0949","-112.0924","(602) 944-3335","","","","http://www.aicag.edu/","Private (Not For Profit)","4 Years","City: Large","Yes","86","8 to 1",""
"106","American Institute of Interior Design","Less than one year certificate","13014 N Saguaro Blvd #206","Fountain Hills","AZ","85268","","USA","Maricopa","480","04013","6200","","MST","N","33.5988","33.6049328","-111.7413","-111.7149208","(480) 946-9601","","","","http://www.aiid.edu","Private (For Profit)","Under 2 Years","","No","","",""
"107","American Institute of Technology","Less than one year certificate","440 S 54th Ave","Phoenix","AZ","85043","85043-4729","USA","Maricopa","623","04013","6200","","MST","N","33.4335","33.442392","-112.2022","-112.175942","(602) 233-2222","","","","http://www.ait-schools.com","Private (For Profit)","Under 2 Years","Rural: Fringe","No","371","12 to 1",""
"108","Anthem College-Phoenix","Less than one year certificate;One but less than two years certificate;Associate's degree;Bachelor's degree","1515 E Indian School Rd","Phoenix","AZ","85014","","USA","Maricopa","602","04013","6200","","MST","N","33.5092","33.494399","-112.0563","-112.049925","(602) 279-9700","","","","http://www.anthem.edu","Private (For Profit)","Under 2 Years","City: Large","No","816","20 to 1",""
"109","Argosy University-Phoenix","Bachelor's degree;Master's degree;Post-master's certificate","2233 W Dunlap Ave","Phoenix","AZ","85021","","USA","Maricopa","602","04013","6200","","MST","N","33.5597","33.5675384","-112.0949","-112.1065516","(602) 216-2600","","","","http://www.argosy.edu/phoenix/","Private (For Profit)","4 Years","City: Large","No","885","12 to 1",""
"110","Arizona Academy of Beauty Inc","Less than one year certificate;One but less than two years certificate","5631 E Speedway Blvd","Tucson","AZ","85712","","USA","Pima","520","04019","8520","","MST","N","32.2521","32.2362621","-110.8866","-110.8726888","(520) 885-4120","","","","http://www.arizonaacademy.com","Private (For Profit)","Under 2 Years","City: Large","No","82","20 to 1",""
"111","Arizona Academy of Beauty-North","Less than one year certificate;One but less than two years certificate","4066 N Oracle Rd","Tucson","AZ","85705","","USA","Pima","520","04019","8520","","MST","N","32.2724","32.2804506","-110.9936","-110.9780495","(520) 888-2277","11","","","http://www.arizonaacademy.com","Private (For Profit)","Under 2 Years","City: Large","No","107","20 to 1",""
"112","Arizona Automotive Institute","Less than one year certificate;One but less than two years certificate;Two but less than 4 years certificate","6829 N 46th Ave","Glendale","AZ","85301","85301-3579","USA","Maricopa","623","04013","6200","","MST","N","33.5314","33.5359794","-112.1772","-112.1578496","(623) 934-7273","","","","http://www.aai.edu","Private (For Profit)","2 Years","Suburb: Large","No","805","30 to 1",""
"113","Arizona Christian University","One but less than two years certificate;Associate's degree;Bachelor's degree","2625 E Cactus Rd","Phoenix","AZ","85032","85032-7097","USA","Maricopa","602","04013","6200","","MST","N","33.6257","33.5966871","-112.0032","-112.0273471","(602) 489-5300","","","","http://www.swcaz.edu","Private (Not For Profit)","4 Years","City: Large","Yes","401","28 to 1",""
"114","Arizona College of Allied Health","Less than one year certificate;One but less than two years certificate;Associate's degree","4425 W Olive Ave #300","Glendale","AZ","85302","","USA","Maricopa","623","04013","6200","","MST","N","33.5673","33.5665229","-112.1777","-112.153935","(602) 222-9300","","","","http://www.arizonacollege.edu","Private (For Profit)","2 Years","Suburb: Large","No","740","16 to 1",""
"115","Arizona Culinary Institute","One but less than two years certificate","10585 N 114th St #401","Scottsdale","AZ","85259","","USA","Maricopa","480","04013","6200","","MST","N","33.6070","33.581955","-111.8150","-111.83147","(480) 603-1066","","","","http://www.azculinary.com","Private (For Profit)","Under 2 Years","","No","125","14 to 1",""
"116","Arizona School of Acupuncture and Oriental Medicine","Master's degree","4646 E Fort Lowell Rd #103","Tucson","AZ","85712","","USA","Pima","520","04019","8520","","MST","N","32.2521","32.261074","-110.8866","-110.89325","(520) 795-0787","101","","","http://www.asaom.edu","Private (For Profit)","4 Years","City: Large","No","60","",""
"117","Arizona State University","Less than one year certificate;Bachelor's degree;Postbaccalaureate certificate;Master's degree;Post-master's certificate","S Mill Ave &amp; E University Dr","Tempe","AZ","85281","","USA","Maricopa","480","04013","6200","","MST","N","33.4203","33.421945","-111.9288","-111.9399265","(480) 965-9011","","","","http://www.asu.edu/","Public","4 Years","City: Midsize","Yes","68064","23 to 1",""
"118","Arizona Western College","Less than one year certificate;One but less than two years certificate;Associate's degree","2020 S Avenue 3 E","Yuma","AZ","85365","85365-8834","USA","Yuma","928","04027","9360","","MST","N","32.7338","32.6895519","-114.5107","-114.5816807","(928) 317-6000","","","","http://www.azwestern.edu","Public","2 Years","City: Small","Yes","7984","21 to 1",""
"119","Avalon School of Cosmetology","Less than one year certificate;One but less than two years certificate","2111 S Alma School Rd #21","Mesa","AZ","85210","","USA","Maricopa","480","04013","6200","","MST","N","33.3901","33.376439","-111.8423","-111.858669","(480) 897-1688","","","","http://www.theavalonschool.com","Private (For Profit)","Under 2 Years","City: Large","No","100","17 to 1",""
"120","Brillare Hairdressing Academy","Less than one year certificate;One but less than two years certificate","7201 E Camelback Rd","Scottsdale","AZ","85251","","USA","Maricopa","480","04013","6200","","MST","N","33.4945","33.5020993","-111.9166","-111.9251309","(480) 994-4222","","","","http://www.attheacademy.com/","Private (For Profit)","Under 2 Years","City: Midsize","No","261","17 to 1",""
"121","Brookline College","Less than one year certificate;Associate's degree","1140 S Priest Dr","Tempe","AZ","85281","","USA","Maricopa","480","04013","6200","","MST","N","33.4203","33.416075","-111.9288","-111.961738","(480) 545-8755","","","","http://www.brooklinecollege.edu","Private (For Profit)","2 Years","City: Large","No","379","9 to 1",""
"122","Brookline College","Less than one year certificate;Associate's degree","5441 E 22nd St #125","Tucson","AZ","85711","85711-5444","USA","Pima","520","04019","8520","","MST","N","32.2154","32.206955","-110.8848","-110.876244","(520) 748-9799","","","","http://www.brooklinecollege.edu","Private (For Profit)","2 Years","City: Large","No","638","12 to 1",""
"123","Brookline College","Less than one year certificate;Associate's degree;Bachelor's degree","2445 W Dunlap Ave","Phoenix","AZ","85021","","USA","Maricopa","602","04013","6200","","MST","N","33.5597","33.566287","-112.0949","-112.112796","(602) 242-6265","","","","http://www.brooklinecollege.edu","Private (For Profit)","Under 2 Years","City: Large","No","1313","13 to 1",""
"124","Brown Mackie College-Phoenix","Associate's degree;Bachelor's degree","13430 N Black Canyon Hwy #190","Phoenix","AZ","85029","","USA","Maricopa","602","04013","6200","","MST","N","33.5950","33.6090519","-112.0890","-112.1172308","(602) 337-3044","2362","","","http://www.brownmackie.edu","Private (For Profit)","Under 2 Years","","No","216","11 to 1",""
"125","Brown Mackie College-Tucson","Less than one year certificate;One but less than two years certificate;Associate's degree;Bachelor's degree","4585 E Speedway Blvd","Tucson","AZ","85712","","USA","Pima","520","04019","8520","","MST","N","32.2521","32.2363488","-110.8866","-110.89508","(520) 319-3300","","","","http://www.brownmackie.edu","Private (For Profit)","4 Years","City: Large","No","557","12 to 1",""
"126","Carrington College-Mesa","One but less than two years certificate;Associate's degree;Two but less than 4 years certificate","630 W Southern Ave","Mesa","AZ","85210","","USA","Maricopa","480","04013","6200","","MST","N","33.3901","33.39378","-111.8423","-111.84523","(480) 212-1600","","","","","Private (For Profit)","2 Years","","No","","",""
"127","Carrington College-Online","Associate's degree;Bachelor's degree","7600 N 16th St","Phoenix","AZ","85020","85020-1642","USA","Maricopa","602","04013","6200","","MST","N","33.5683","33.548745","-112.0535","-112.0492306","(866) 933-8660","","","","http://www.carrington.edu","Private (For Profit)","4 Years","City: Large","No","","",""
"128","Carrington College-Phoenix","One but less than two years certificate;Associate's degree","8503 N 27th Ave","Phoenix","AZ","85051","85051-4063","USA","Maricopa","602","04013","6200","","MST","N","33.5595","33.561658","-112.1329","-112.116319","(602) 393-5900","","","","http://www.carrington.edu","Private (For Profit)","2 Years","City: Large","No","5844","39 to 1",""
"129","Carrington College-Tucson","One but less than two years certificate;Associate's degree","3550 N Oracle Rd","Tucson","AZ","85705","85705-5885","USA","Pima","520","04019","8520","","MST","N","32.2724","32.2709395","-110.9936","-110.9779605","(520) 888-5885","","","","http://www.carrington.edu","Private (For Profit)","2 Years","","No","","",""
"130","Carrington College-Westside","One but less than two years certificate;Associate's degree","2701 W Bethany Home Rd","Phoenix","AZ","85017","85017-5885","USA","Maricopa","602","04013","6200","","MST","N","33.5097","33.523318","-112.1232","-112.117752","(602) 433-1333","","","","http://www.carrington.edu","Private (For Profit)","2 Years","","No","","",""
"131","Carsten Aveda Institute","Less than one year certificate;One but less than two years certificate","3345 S Rural Rd","Tempe","AZ","85282","","USA","Maricopa","480","04013","6200","","MST","N","33.3932","33.391364","-111.9314","-111.925868","(480) 491-0449","","","","http://www.carsteninstitute.com","Private (For Profit)","Under 2 Years","City: Midsize","No","97","13 to 1",""
"132","Central Arizona College","Less than one year certificate;One but less than two years certificate;Associate's degree","8470 N Overfield Rd","Coolidge","AZ","85128","85128-9030","USA","Pinal","520","04021","6200","","MST","N","32.9480","32.9560468","-111.5160","-111.6526473","(520) 494-5444","","","","http://www.centralaz.edu","Public","2 Years","Rural: Distant","Yes","6795","14 to 1",""
"133","Chamberlain College of Nursing - Phoenix Campus","Bachelor's degree","2149 W Dunlap Ave","Phoenix","AZ","85021","","USA","Maricopa","602","04013","6200","","MST","N","33.5597","33.565746","-112.0949","-112.104952","(602) 331-2720","","","","http://www.chamberlain.edu","Private (For Profit)","Under 2 Years","","No","242","17 to 1",""
"134","Chandler/Gilbert Community College","Less than one year certificate;One but less than two years certificate;Associate's degree;Two but less than 4 years certificate","2626 E Pecos Rd","Chandler","AZ","85225","85225-2499","USA","Maricopa","480","04013","6200","","MST","N","33.3191","33.292611","-111.8203","-111.796591","(480) 732-7000","","","","http://www.cgc.maricopa.edu","Public","2 Years","Suburb: Large","Yes","11058","26 to 1",""
"135","Charles of Italy Beauty College","Less than one year certificate;One but less than two years certificate","1987 McCulloch Blvd N #205","Lake Havasu City","AZ","86403","","USA","Mohave","928","04015","4120","","MST","N","34.6022","34.477602","-113.7720","-114.332543","(928) 453-6666","","","","http://www.charlesofitaly.edu","Private (For Profit)","Under 2 Years","Town: Remote","No","87","18 to 1",""
"136","Cochise College","Less than one year certificate;One but less than two years certificate;Associate's degree","4190 W Hwy 80","Douglas","AZ","85607","85607-9724","USA","Cochise","520","04003","","","MST","N","31.4518","31.37136","-109.3291","-109.689592","(520) 515-0500","","","","http://www.cochise.edu","Public","2 Years","Rural: Distant","Yes","4739","14 to 1",""
"137","Coconino County Community College","Less than one year certificate;One but less than two years certificate;Associate's degree","2800 S Lone Tree Rd","Flagstaff","AZ","86001","86001-2701","USA","Coconino","928","04005","2620","","MST","N","35.1888","35.172577","-111.6603","-111.648129","(928) 527-1222","","","","http://www.coconino.edu/Pages/default.aspx","Public","2 Years","Rural: Fringe","No","3981","18 to 1",""
"138","College America","Associate's degree;Bachelor's degree","E Rte 66","Flagstaff","AZ","86004","","USA","Coconino","928","04005","2620","","MST","N","35.1820","35.207582","-111.2649","-111.61194","(928) 213-6060","1400","","","http://www.collegeamerica.edu","Private (For Profit)","Under 2 Years","City: Small","No","279","33 to 1",""
"139","Collins College","Associate's degree;Bachelor's degree","4750 S 44th Pl","Phoenix","AZ","85040","","USA","Maricopa","602","04013","6200","","MST","N","33.4044","33.404409","-112.0280","-111.987071","(480) 966-3000","","","","http://www.collinscollege.edu","Private (For Profit)","4 Years","Rural: Fringe","No","1171","20 to 1",""
"140","Conservatory of Recording Arts and Sciences","Less than one year certificate;One but less than two years certificate","2300 W Broadway Rd","Tempe","AZ","85282","85282-1707","USA","Maricopa","480","04013","6200","","MST","N","33.3932","33.4085877","-111.9314","-111.973298","(480) 858-9400","","","","http://www.WWW.AUDIORECORDINGSCHOOL.com","Private (For Profit)","Under 2 Years","City: Midsize","No","491","12 to 1",""
"141","Cortiva Institute-Scottsdale","Less than one year certificate","8010 E McDowell Rd","Scottsdale","AZ","85257","","USA","Maricopa","480","04013","6200","","MST","N","33.4671","33.466729","-111.9141","-111.907469","(480) 945-9461","","","","http://www.cortiva.com","Private (For Profit)","Under 2 Years","City: Midsize","No","172","28 to 1",""
"142","Cortiva Institute-Tucson","Less than one year certificate;One but less than two years certificate","6390 E Broadway Blvd #100","Tucson","AZ","85710","","USA","Pima","520","04019","8520","","MST","N","32.2156","32.219129","-110.8078","-110.856764","(520) 407-5160","","","","http://www.cortiva.com/","Private (For Profit)","Under 2 Years","City: Large","No","221","22 to 1",""
"143","DeVry University-Arizona","Associate's degree;Bachelor's degree;Master's degree","2149 W Dunlap Ave","Phoenix","AZ","85021","85021-2995","USA","Maricopa","602","04013","6200","","MST","N","33.5597","33.565746","-112.0949","-112.104952","(602) 870-9222","","","","http://www.devry.edu","Private (For Profit)","4 Years","City: Large","No","2016","21 to 1",""
"144","Dine College","Associate's degree;Bachelor's degree","One Circle Dr. Route 12","Tsaile","AZ","86556","","USA","Apache","928","04001","","","MST","Y","36.3275","36.303712","-109.2466","-109.214705","(928) 724-6600","","","","http://www.dinecollege.edu","Public","Under 2 Years","Rural: Remote","Yes","1935","25 to 1",""
"145","East Valley Institute of Technology","Less than one year certificate;One but less than two years certificate","1601 W Main St","Mesa","AZ","85201","","USA","Maricopa","480","04013","6200","","MST","N","33.4340","33.4148136","-111.8483","-111.8653647","(480) 461-4000","","","","http://www.evit.com","Public","Under 2 Years","City: Large","No","270","15 to 1",""
"146","Eastern Arizona College","Less than one year certificate;One but less than two years certificate;Associate's degree","615 N Stadium Ave","Thatcher","AZ","85552","85552-0769","USA","Graham","928","04009","","","MST","N","32.7621","32.8430843","-109.8381","-109.7630385","(928) 428-8322","","","","http://www.eac.edu","Public","2 Years","Town: Remote","Yes","7241","22 to 1",""
"147","Embry Riddle Aeronautical University-Prescott","Bachelor's degree;Master's degree","3700 Willow Creek Rd","Prescott","AZ","86301","86301-3720","USA","Yavapai","928","04025","","","MST","N","34.6294","34.619047","-112.4304","-112.443995","(928) 777-3728","","","","http://www.erau.edu","Private (Not For Profit)","4 Years","City: Small","Yes","1672","16 to 1",""
"148","Empire Beauty School-Avondale","One but less than two years certificate","9945 W McDowell Rd","Avondale","AZ","85392","","USA","Maricopa","623","04013","6200","","MST","N","33.4767","33.4646259","-112.3068","-112.2734241","(570) 429-4321","2414","","","http://www.empire.edu","Private (For Profit)","Under 2 Years","City: Large","No","240","16 to 1",""
"149","Empire Beauty School-C Tucson","Less than one year certificate;One but less than two years certificate","3030 E Speedway Blvd","Tucson","AZ","85716","","USA","Pima","520","04019","8520","","MST","N","32.2436","32.235641","-110.9238","-110.927667","(570) 429-4321","2414","","","http://www.empire.edu","Private (For Profit)","Under 2 Years","City: Large","No","186","12 to 1",""
"150","Empire Beauty School-Chandler","One but less than two years certificate","S Alma School Rd","Chandler","AZ","85224","","USA","Maricopa","480","04013","6200","","MST","N","33.3240","33.2689729","-111.8671","-111.8587152","(570) 429-4321","2414","","","http://www.empire.edu","Private (For Profit)","Under 2 Years","Suburb: Large","No","141","14 to 1",""
"151","Empire Beauty School-Flagstaff","One but less than two years certificate","E Rte 66","Flagstaff","AZ","86004","","USA","Coconino","928","04005","2620","","MST","N","35.1820","35.207582","-111.2649","-111.61194","(570) 429-4321","2414","","","http://www.empire.edu","Private (For Profit)","Under 2 Years","City: Small","No","59","16 to 1",""
"152","Empire Beauty School-North Tucson","One but less than two years certificate","4343 N Oracle Rd","Tucson","AZ","85705","","USA","Pima","520","04019","8520","","MST","N","32.2724","32.2856283","-110.9936","-110.9782839","(570) 429-4321","2414","","","http://www.empire.edu","Private (For Profit)","Under 2 Years","City: Large","No","87","15 to 1",""
"153","Empire Beauty School-NW Phoenix","Less than one year certificate;One but less than two years certificate","2727 W Glendale Ave","Phoenix","AZ","85051","","USA","Maricopa","602","04013","6200","","MST","N","33.5595","33.5385433","-112.1329","-112.1185489","(570) 429-4321","2414","","","http://www.empire.edu","Private (For Profit)","Under 2 Years","City: Large","No","201","18 to 1",""
"154","Empire Beauty School-Paradise Valley","One but less than two years certificate","12827 N Tatum Blvd","Phoenix","AZ","85032","","USA","Maricopa","602","04013","6200","","MST","N","33.6257","33.6041241","-112.0032","-111.9778588","(570) 429-4321","2414","","","http://www.empire.edu","Private (For Profit)","Under 2 Years","City: Large","No","56","11 to 1",""
"155","Empire Beauty School-Prescott","One but less than two years certificate","410 W Goodwin St","Prescott","AZ","86303","","USA","Yavapai","928","04025","","","MST","N","34.5368","34.5400534","-112.5124","-112.4738542","(570) 429-4321","2414","","","http://www.empire.edu","Private (For Profit)","Under 2 Years","City: Small","No","91","21 to 1",""
"156","Estrella Mountain Community College","Less than one year certificate;One but less than two years certificate;Associate's degree","3000 N Dysart Rd","Avondale","AZ","85392","85323-1000","USA","Maricopa","623","04013","6200","","MST","N","33.4767","33.4791146","-112.3068","-112.3411791","(623) 935-8000","","","","http://www.emc.maricopa.edu","Public","2 Years","Suburb: Small","No","7202","25 to 1",""
"157","Everest College-Mesa","One but less than two years certificate;Associate's degree;Bachelor's degree","5416 E Baseline Rd #200","Mesa","AZ","85206","","USA","Maricopa","480","04013","6200","","MST","N","33.3970","33.3793088","-111.7198","-111.7186634","(480) 830-5151","","","","http://www.everestcollegephoenix.edu","Private (For Profit)","Under 2 Years","City: Large","No","628","18 to 1",""
"158","Everest College-Phoenix","One but less than two years certificate;Associate's degree;Bachelor's degree","10400 N 25th Ave #190","Phoenix","AZ","85021","85021-1641","USA","Maricopa","602","04013","6200","","MST","N","33.5597","33.580916","-112.0949","-112.114468","(602) 942-4141","","","","http://www.everestcollegephoenix.edu","Private (For Profit)","Under 2 Years","City: Large","No","4688","29 to 1",""
"159","Fortis College","One but less than two years certificate;Associate's degree;Two but less than 4 years certificate","555 N 18th St #110","Phoenix","AZ","85006","","USA","Maricopa","602","04013","6200","","MST","N","33.4656","33.4545273","-112.0477","-112.0434239","(602) 254-3099","","","","http://www.fortiscollege.edu","Private (For Profit)","2 Years","","No","124","16 to 1",""
"160","Frank Lloyd Wright School of Architecture","Bachelor's degree;Master's degree","12621 N Frank Lloyd Wright Blv","Scottsdale","AZ","85255","","USA","Maricopa","480","04013","6200","","MST","N","33.6894","33.6063141","-111.8365","-111.8450901","(480) 860-2700","","","","http://www.taliesin.edu","Private (Not For Profit)","4 Years","","Yes","30","3 to 1",""
"161","GateWay Community College","Less than one year certificate;One but less than two years certificate;Associate's degree;Two but less than 4 years certificate","108 N 40th St","Phoenix","AZ","85034","","USA","Maricopa","602","04013","6200","","MST","N","33.4378","33.449194","-112.0211","-111.995386","(602) 392-5000","","","","http://www.gwc.maricopa.edu","Public","2 Years","City: Large","No","7863","9 to 1",""
"162","Glendale Community College","Less than one year certificate;One but less than two years certificate;Associate's degree","6000 W Olive Ave","Glendale","AZ","85302","","USA","Maricopa","623","04013","6200","","MST","N","33.5673","33.5710782","-112.1777","-112.190516","(623) 845-3000","","","","http://www.gc.maricopa.edu","Public","2 Years","Suburb: Large","No","20154","24 to 1",""
"163","Golf Academy of America","Associate's degree","670 N Arizona Ave #13","Chandler","AZ","85225","","USA","Maricopa","480","04013","6200","","MST","N","33.3191","33.314533","-111.8203","-111.842898","(800) 342-7342","","","","http://www.golfacademy.edu","Private (For Profit)","2 Years","Suburb: Large","No","272","30 to 1",""
"164","Grand Canyon University","Bachelor's degree;Master's degree;Post-master's certificate","3300 W Camelback Rd","Phoenix","AZ","85017","","USA","Maricopa","602","04013","6200","","MST","N","33.5097","33.50959","-112.1232","-112.129898","(800) 800-9776","","","","http://www.gcu.edu","Private (For Profit)","4 Years","City: Large","Yes","34205","20 to 1",""
"165","Hair Academy of Safford","Less than one year certificate;One but less than two years certificate","1550 W Thatcher Blvd","Safford","AZ","85546","","USA","Graham","928","04009","","","MST","N","32.7029","32.8349729","-109.4816","-109.7278401","(928) 428-0331","","","","","Private (For Profit)","Under 2 Years","Rural: Fringe","No","102","16 to 1",""
"166","HDS Truck Driving Institute","Less than one year certificate","6251 S Wilmot Rd","Tucson","AZ","85756","","USA","Pima","520","04019","8520","","MST","N","32.1047","32.138553","-110.9099","-110.855776","(520) 721-5825","219","","","http://www.hdsdrivers.com","Private (For Profit)","Under 2 Years","Rural: Fringe","No","105","12 to 1",""
"167","International Academy of Hair Design","Less than one year certificate;One but less than two years certificate","3350 N Arizona Ave #4","Chandler","AZ","85225","85225-7198","USA","Maricopa","480","04013","6200","","MST","N","33.3191","33.354359","-111.8203","-111.842471","(480) 820-9422","","","","http://www.intlacademy.biz","Private (For Profit)","Under 2 Years","Suburb: Large","No","169","20 to 1",""
"168","International Baptist College","Less than one year certificate;Associate's degree;Bachelor's degree;Master's degree","2211 W Germann Rd","Chandler","AZ","85286","","USA","Maricopa","480","04013","6200","","MST","N","33.2754","33.275848","-111.8634","-111.878629","(480) 245-7903","","","","http://www.ibconline.edu/ibc/index.jsp","Private (Not For Profit)","4 Years","City: Midsize","Yes","91","7 to 1",""
"169","ITT Technical Institute - Phoenix","Associate's degree;Bachelor's degree","10220 N 25th Ave #100","Phoenix","AZ","85029","","USA","Maricopa","602","04013","6200","","MST","N","33.5950","33.5780952","-112.0890","-112.1134671","(602) 749-7900","","","","http://www.itt-tech.edu","Private (For Profit)","Under 2 Years","","No","339","23 to 1",""
"170","ITT Technical Institute-Tempe","Associate's degree;Bachelor's degree","5005 S Wendler Dr","Tempe","AZ","85282","","USA","Maricopa","480","04013","6200","","MST","N","33.3932","33.379458","-111.9314","-111.969352","(602) 437-7500","","","","http://www.itt-tech.edu","Private (For Profit)","Under 2 Years","City: Midsize","No","840","19 to 1",""
"171","ITT Technical Institute-Tucson","Associate's degree;Bachelor's degree","1455 W River Rd","Tucson","AZ","85704","85704-5829","USA","Pima","520","04019","8520","","MST","N","32.3315","32.296492","-110.9863","-110.998564","(520) 408-7488","","","","http://www.itt-tech.edu","Private (For Profit)","Under 2 Years","Suburb: Large","No","494","26 to 1",""
"172","Kaplan College","Less than one year certificate;One but less than two years certificate;Associate's degree;Two but less than 4 years certificate","13610 N Black Canyon Hwy #104","Phoenix","AZ","85029","","USA","Maricopa","602","04013","6200","","MST","N","33.5950","33.6104176","-112.0890","-112.1173256","(602) 548-1955","","","","http://www.kc-phoenix.com","Private (For Profit)","2 Years","City: Large","No","690","34 to 1",""
"173","Lamson College","Less than one year certificate;One but less than two years certificate;Associate's degree","875 W Elliot Rd #206","Tempe","AZ","85284","","USA","Maricopa","480","04013","6200","","MST","N","33.3371","33.3480599","-111.9343","-111.952136","(480) 898-7000","","","","http://www.lamsoncollege.edu","Private (For Profit)","2 Years","City: Midsize","No","442","18 to 1",""
"174","Le Cordon Bleu College of Culinary Arts","Less than one year certificate;Associate's degree;Bachelor's degree","8100 E Camelback Rd #1001","Scottsdale","AZ","85251","85251-2729","USA","Maricopa","480","04013","6200","","MST","N","33.4945","33.507379","-111.9166","-111.905216","(480) 425-3000","","","","http://www.chefs.edu/scottsdale","Private (For Profit)","Under 2 Years","City: Midsize","No","1522","38 to 1",""
"175","Maricopa Beauty College LLC","Less than one year certificate;One but less than two years certificate","515 W Western Ave","Avondale","AZ","85323","","USA","Maricopa","623","04013","6200","","MST","N","33.4440","33.4353095","-112.3152","-112.3549408","(623) 932-4414","","","","http://www.maricopabeautycollege.com","Private (For Profit)","Under 2 Years","Suburb: Small","No","130","18 to 1",""
"176","Maricopa Skill Center","Less than one year certificate;One but less than two years certificate","1245 E Buckeye Rd","Phoenix","AZ","85034","85034-4101","USA","Maricopa","602","04013","6200","","MST","N","33.4378","33.436455","-112.0211","-112.054367","(602) 238-4300","","","","http://www.maricopaskillcenter.com/","Public","Under 2 Years","City: Large","No","941","23 to 1",""
"177","Mesa Community College","Less than one year certificate;One but less than two years certificate;Associate's degree","1833 W Southern Ave","Mesa","AZ","85202","","USA","Maricopa","480","04013","6200","","MST","N","33.3827","33.393009","-111.8737","-111.870863","(602) 461-7000","","","","http://www.mc.maricopa.edu","Public","2 Years","City: Large","No","25960","24 to 1",""
"178","Midwestern University","Master's degree","19555 N 59th Ave","Glendale","AZ","85308","","USA","Maricopa","623","04013","6200","","MST","N","33.6643","33.6628743","-112.1813","-112.1866608","(623) 572-3200","","","","http://www.midwestern.edu","Private (Not For Profit)","4 Years","Suburb: Large","Yes","2070","1 to 1",""
"179","Mohave Community College","Less than one year certificate;One but less than two years certificate;Associate's degree","1971 Jagerson Ave","Kingman","AZ","86409","86409-1238","USA","Mohave","928","04015","4120","","MST","N","35.2445","35.2684988","-114.0164","-114.0306062","(928) 757-4331","","","","http://www.mohave.edu","Public","2 Years","Rural: Fringe","No","6702","19 to 1",""
"180","Northcentral University","Bachelor's degree;Master's degree","10000 E. University Dr","Prescott Valley","AZ","86314","","USA","Yavapai","928","04025","","","MST","N","34.5936","34.6100243","-112.3237","-112.315721","(888) 327-2877","","","","http://www.ncu.edu","Private (For Profit)","4 Years","Suburb: Small","No","8376","24 to 1",""
"181","Northern Arizona University","Less than one year certificate;Bachelor's degree;Postbaccalaureate certificate;Master's degree","Knoles Drive Babbitt Administrative Center","Flagstaff","AZ","86011","86011-4132","USA","Coconino","928","04005","2620","","MST","N","35.1890","35.1882193","-111.6197","-111.6541482","(928) 523-9011","","","","http://www.home.nau.edu/","Public","4 Years","City: Small","Yes","23597","19 to 1",""
"182","Northland Pioneer College","Less than one year certificate;One but less than two years certificate;Associate's degree","2251 Navajo Blvd","Holbrook","AZ","86025","86025-0610","USA","Navajo","928","04017","","","MST","N","34.9155","34.9273992","-110.0663","-110.1422212","(928) 524-7600","","","","http://www.npc.edu","Public","2 Years","Rural: Fringe","No","4636","17 to 1",""
"183","Ottawa University-Phoenix","Less than one year certificate;Bachelor's degree;Postbaccalaureate certificate;Master's degree;Post-master's certificate","10020 N 25th Ave","Phoenix","AZ","85029","","USA","Maricopa","602","04013","6200","","MST","N","33.5950","33.5766358","-112.0890","-112.1134847","(602) 371-1188","","","","http://www.ottawa.edu","Private (Not For Profit)","4 Years","City: Large","No","1127","5 to 1",""
"184","Paradise Valley Community College","Less than one year certificate;One but less than two years certificate;Associate's degree","18401 N 32nd St","Phoenix","AZ","85032","","USA","Maricopa","602","04013","6200","","MST","N","33.6257","33.651972","-112.0032","-112.01068","(602) 787-6500","","","","http://www.pvc.maricopa.edu","Public","2 Years","City: Large","No","9951","22 to 1",""
"185","Paul Mitchell the School-Phoenix","Less than one year certificate;One but less than two years certificate","3423 W Bethany Home Rd","Phoenix","AZ","85017","","USA","Maricopa","602","04013","6200","","MST","N","33.5097","33.523742","-112.1232","-112.1331258","(801) 302-8801","1020","","","","Private (For Profit)","Under 2 Years","","No","","",""
"186","Phoenix College","Less than one year certificate;One but less than two years certificate;Associate's degree","1202 W Thomas Rd","Phoenix","AZ","85013","","USA","Maricopa","602","04013","6200","","MST","N","33.5105","33.484574","-112.0830","-112.088656","(602) 264-2492","","","","http://www.pc.maricopa.edu","Public","2 Years","City: Large","No","12164","21 to 1",""
"187","Phoenix Institute of Herbal Medicine & Acupuncture","Master's degree","a100, 301 E Bethany Home Rd","Phoenix","AZ","85012","","USA","Maricopa","602","04013","6200","","MST","N","33.5073","33.523661","-112.0702","-112.069228","(602) 274-1885","","","","http://www.pihma.edu","Private (For Profit)","4 Years","City: Large","No","131","",""
"188","Phoenix School of Law","","4041 N Central Ave #100","Phoenix","AZ","85012","","USA","Maricopa","602","04013","6200","","MST","N","33.5073","33.493924","-112.0702","-112.0727","(602) 682-6800","","","","http://www.phoenixlaw.edu","Private (For Profit)","4 Years","","No","489","",""
"189","Phoenix Seminary","Postbaccalaureate certificate;Master's degree","4222 E Thomas Rd #400","Phoenix","AZ","85018","85018-7607","USA","Maricopa","602","04013","6200","","MST","N","33.4998","33.4803696","-111.9816","-111.990492","(602) 850-8000","","","","http://www.ps.edu/","Private (Not For Profit)","4 Years","City: Large","No","177","",""
"190","Pima Community College","Less than one year certificate;One but less than two years certificate;Associate's degree","401 N Bonita Ave","Tucson","AZ","85709","85709-5000","USA","Pima","520","04019","8520","","MST","N","32.2328","32.226596","-111.0133","-110.985308","(520) 206-4500","","","","http://www.pima.edu","Public","2 Years","City: Large","No","35880","21 to 1",""
"191","Pima Medical Institute","Less than one year certificate;Associate's degree","2160 S Power Rd","Mesa","AZ","85209","","USA","Maricopa","480","04013","6200","","MST","N","33.3773","33.3763082","-111.6595","-111.6879918","(480) 898-9898","","","","http://www.pmi.edu","Private (For Profit)","2 Years","","No","547","25 to 1",""
"192","Pima Medical Institute","Less than one year certificate;Associate's degree;Two but less than 4 years certificate","957 S Dobson Rd","Mesa","AZ","85202","","USA","Maricopa","480","04013","6200","","MST","N","33.3827","33.396898","-111.8737","-111.873912","(480) 644-0267","","","","http://www.pmi.edu","Private (For Profit)","2 Years","City: Large","No","1274","25 to 1",""
"193","Pima Medical Institute","Less than one year certificate;Associate's degree;Two but less than 4 years certificate;Bachelor's degree","3350 E Grant Rd #200","Tucson","AZ","85716","","USA","Pima","520","04019","8520","","MST","N","32.2436","32.249609","-110.9238","-110.921355","(520) 326-1600","","","","http://www.pmi.edu/locations/tucson.asp","Private (For Profit)","Under 2 Years","City: Large","No","1198","25 to 1",""
"194","Prescott College","Bachelor's degree;Postbaccalaureate certificate;Master's degree;Post-master's certificate","220 Grove Ave","Prescott","AZ","86301","","USA","Yavapai","928","04025","","","MST","N","34.6294","34.5447189","-112.4304","-112.4762804","(877) 350-2100","","","","http://www.prescott.edu","Private (Not For Profit)","4 Years","City: Small","Yes","1119","11 to 1",""
"195","Refrigeration School Inc","Less than one year certificate;One but less than two years certificate;Associate's degree","4210 E Washington St","Phoenix","AZ","85008","85034-1816","USA","Maricopa","602","04013","6200","","MST","N","33.4647","33.4481528","-111.9872","-111.9893695","(602) 275-7133","","","","http://www.refrigerationschool.com","Private (For Profit)","2 Years","Rural: Fringe","No","492","27 to 1",""
"196","Regency Beauty Institute-East Tucson","One but less than two years certificate","7225 E Broadway Blvd #170","Tucson","AZ","85710","","USA","Pima","520","04019","8520","","MST","N","32.2156","32.222358","-110.8078","-110.838279","(800) 787-6456","","","","http://www.regencybeauty.com","Private (For Profit)","Under 2 Years","City: Large","No","131","18 to 1",""
"197","Regency Beauty Institute-Mesa","One but less than two years certificate","1457 W Southern Ave #113","Mesa","AZ","85202","","USA","Maricopa","480","04013","6200","","MST","N","33.3827","33.392762","-111.8737","-111.862943","(800) 787-6456","","","","http://www.regencybeauty.com","Private (For Profit)","Under 2 Years","","No","116","19 to 1",""
"198","Regency Beauty Institute-Metro Center","One but less than two years certificate","10217 North Metro Pkwy W","Phoenix","AZ","85051","","USA","Maricopa","602","04013","6200","","MST","N","33.5595","33.5791522","-112.1329","-112.1239251","(800) 787-6456","","","","http://www.regencybeauty.com","Private (For Profit)","Under 2 Years","City: Large","No","106","15 to 1",""
"199","Regency Beauty Institute-North Tucson","One but less than two years certificate","625 E Wetmore Rd","Tucson","AZ","85705","","USA","Pima","520","04019","8520","","MST","N","32.2724","32.286752","-110.9936","-110.965476","(520) 255-0700","","","","http://www.regencybeauty.com","Private (For Profit)","Under 2 Years","","No","","",""
"200","Regency Beauty Institute-Tolleson","One but less than two years certificate","7910 W Thomas Rd","Phoenix","AZ","85033","","USA","Maricopa","623","04013","6200","","MST","N","33.4931","33.4801061","-112.2131","-112.2280873","(800) 787-6456","","","","http://www.regencybeauty.com","Private (For Profit)","Under 2 Years","","No","109","18 to 1",""
"201","Rio Salado College","Less than one year certificate;One but less than two years certificate;Associate's degree","2323 W 14th St","Tempe","AZ","85281","","USA","Maricopa","480","04013","6200","","MST","N","33.4203","33.41287","-111.9288","-111.974359","(480) 517-8000","","","","http://www.rio.maricopa.edu","Public","2 Years","Rural: Fringe","No","20865","36 to 1",""
"202","Roberto-Venn School of Luthiery","Less than one year certificate","4011 S 16th St","Phoenix","AZ","85040","","USA","Maricopa","602","04013","6200","","MST","N","33.4044","33.409997","-112.0280","-112.046631","(602) 243-1179","","","","http://www.roberto-venn.com","Private (For Profit)","Under 2 Years","City: Large","No","35","6 to 1",""
"203","Sanford-Brown College","One but less than two years certificate;Associate's degree","9630 N 25th Ave","Phoenix","AZ","85021","","USA","Maricopa","602","04013","6200","","MST","N","33.5597","33.574158","-112.0949","-112.113957","(470) 444-1112","","","","http://www.sanfordbrown.edu/Phoenix","Private (For Profit)","2 Years","","No","","",""
"204","Scottsdale Community College","Less than one year certificate;One but less than two years certificate;Associate's degree","9000 E Chaparral Rd","Scottsdale","AZ","85256","","USA","Maricopa","480","04013","6200","","MST","N","33.5138","33.512596","-111.8079","-111.881225","(480) 423-6000","","","","http://www.sc.maricopa.edu","Public","2 Years","Rural: Fringe","No","10923","20 to 1",""
"205","South Mountain Community College","Less than one year certificate;One but less than two years certificate;Associate's degree","7050 S 24th St","Phoenix","AZ","85042","","USA","Maricopa","602","04013","6200","","MST","N","33.3811","33.382744","-112.0268","-112.03444","(602) 243-8135","","","","http://www.southmountaincc.edu","Public","2 Years","City: Large","No","5444","21 to 1",""
"206","Southwest College of Naturopathic Medicine & Health Sciences","","2140 W Broadway Rd","Tempe","AZ","85282","","USA","Maricopa","480","04013","6200","","MST","N","33.3932","33.4088754","-111.9314","-111.9725223","(480) 858-9100","200","","","http://www.scnm.edu","Private (Not For Profit)","4 Years","City: Midsize","No","332","",""
"207","Southwest Institute of Healing Arts","Less than one year certificate;One but less than two years certificate;Associate's degree","1100 E Apache Blvd","Tempe","AZ","85281","","USA","Maricopa","480","04013","6200","","MST","N","33.4203","33.415162","-111.9288","-111.922231","(480) 994-9244","","","","http://www.SWIHA.EDU","Private (For Profit)","2 Years","City: Midsize","No","1482","24 to 1",""
"208","Studio Academy of Beauty","Less than one year certificate;One but less than two years certificate","610 N Alma School Rd #38","Chandler","AZ","85224","","USA","Maricopa","480","04013","6200","","MST","N","33.3240","33.315162","-111.8671","-111.859607","(480) 857-1138","","","","http://www.tsaob.com","Private (For Profit)","Under 2 Years","","No","68","8 to 1",""
"209","The Art Center Design College-Tucson","Bachelor's degree","2525 N Country Club Rd","Tucson","AZ","85716","","USA","Pima","520","04019","8520","","MST","N","32.2436","32.252414","-110.9238","-110.927239","(520) 325-0123","","","","http://www.theartcenter.edu","Private (For Profit)","4 Years","City: Large","No","279","4 to 1",""
"210","The Art Institute of Phoenix","Associate's degree;Bachelor's degree","2233 W Dunlap Ave","Phoenix","AZ","85021","85021-2859","USA","Maricopa","602","04013","6200","","MST","N","33.5597","33.5675384","-112.0949","-112.1065516","(602) 331-7500","","","","http://www.artinstitutes.edu/phoenix/","Private (For Profit)","4 Years","City: Large","Yes","1243","17 to 1",""
"211","The Art Institute of Tucson","Associate's degree;Bachelor's degree","5099 E Grant Rd","Tucson","AZ","85712","","USA","Pima","520","04019","8520","","MST","N","32.2521","32.251535","-110.8866","-110.884763","(520) 318-2719","","","","http://www.artinstitutes.edu/tucson","Private (For Profit)","Under 2 Years","City: Large","Yes","346","11 to 1",""
"212","The Bryman School of Arizona","Less than one year certificate;One but less than two years certificate;Associate's degree","2250 W Peoria Ave","Phoenix","AZ","85029","","USA","Maricopa","602","04013","6200","","MST","N","33.5950","33.5827219","-112.0890","-112.107232","(602) 274-4300","","","","http://www.brymanschool.edu","Private (For Profit)","2 Years","City: Large","No","643","30 to 1",""
"213","Thunderbird School of Global Management","Less than one year certificate;Postbaccalaureate certificate;Master's degree;Post-master's certificate","1 Global Pl","Glendale","AZ","85306","85306-6000","USA","Maricopa","623","04013","6200","","MST","N","33.6236","33.6226247","-112.1748","-112.1826271","(602) 978-7000","","","","http://www.thunderbird.edu","Private (Not For Profit)","4 Years","Suburb: Large","Yes","1309","30 to 1",""
"214","Tohono O'Odham Community College","Less than one year certificate;One but less than two years certificate;Associate's degree;Two but less than 4 years certificate","Highway 86 Mile Post 115.5 N","Sells","AZ","85634","85634-3129","USA","Pima","520","04019","8520","","MST","N","32.0925","31.9120215","-112.1297","-111.881234","(520) 383-8401","","","","http://www.tocc.cc.az.us","Public","2 Years","Rural: Remote","No","254","5 to 1",""
"215","Tucson College","Less than one year certificate","5151 E Broadway Blvd #155","Tucson","AZ","85711","","USA","Pima","520","04019","8520","","MST","N","32.2154","32.222386","-110.8848","-110.883679","(520) 258-0400","","","","http://www.tucsoncollege.edu","Private (For Profit)","Under 2 Years","City: Large","No","473","21 to 1",""
"216","Tucson College of Beauty","Less than one year certificate;One but less than two years certificate","3955 N Flowing Wells Rd","Tucson","AZ","85705","","USA","Pima","520","04019","8520","","MST","N","32.2724","32.27817","-110.9936","-110.995998","(520) 887-8262","","","","http://www.tucsoncollegeofbeauty.com","Private (For Profit)","Under 2 Years","City: Large","No","85","9 to 1",""
"217","Turning Point Beauty College","Less than one year certificate;One but less than two years certificate","1226 E Florence Blvd","Casa Grande","AZ","85222","","USA","Pinal","520","04021","6200","","MST","N","32.7310","32.879959","-111.8960","-111.7160812","(520) 836-1476","","","","","Private (For Profit)","Under 2 Years","Town: Distant","No","86","17 to 1",""
"218","Universal Barber College","One but less than two years certificate","1202 S 7th Ave","Phoenix","AZ","85007","","USA","Maricopa","602","04013","6200","","MST","N","33.4490","33.4358478","-112.0913","-112.0825415","(602) 262-9904","","","","http://www.universalbarbercollege.com","Private (For Profit)","Under 2 Years","","No","","",""
"219","Universal Technical Institute of Arizona Inc","Associate's degree","10695 W Pierce St","Avondale","AZ","85353","","USA","Maricopa","623","04013","6200","","MST","N","33.1732","33.4535856","-112.3475","-112.2876741","(623) 245-4600","","","","http://www.uti.edu/","Private (For Profit)","2 Years","Suburb: Small","No","3088","30 to 1",""
"220","Universal Technical Institute-Motorcycle Mechanics Institute Division","One but less than two years certificate;Two but less than 4 years certificate","2844 W Deer Valley Rd","Phoenix","AZ","85027","","USA","Maricopa","623","04013","6200","","MST","N","33.6889","33.684378","-112.1083","-112.121479","(623) 869-9644","","","","http://www.uti.edu/","Private (For Profit)","2 Years","City: Large","No","3197","30 to 1",""
"221","University of Advancing Technology","Associate's degree;Bachelor's degree;Master's degree","2625 W Baseline Rd","Tempe","AZ","85283","","USA","Maricopa","480","04013","6200","","MST","N","33.3640","33.3780918","-111.9316","-111.9759916","(602) 383-8228","","","","http://www.uat.edu","Private (For Profit)","4 Years","City: Midsize","Yes","1147","21 to 1",""
"222","University of Arizona","Bachelor's degree;Postbaccalaureate certificate;Master's degree;Post-master's certificate","1401 E University Blvd","Tucson","AZ","85719","85721-0066","USA","Pima","520","04019","8520","","MST","N","32.2456","32.231871","-110.9484","-110.954822","(520) 621-2211","","","","http://www.arizona.edu","Public","4 Years","City: Large","Yes","38767","20 to 1",""
"223","University of Phoenix-Online Campus","Less than one year certificate;Associate's degree;Bachelor's degree;Postbaccalaureate certificate;Master's degree;Post-master's certificate","3157 E Elwood St","Phoenix","AZ","85034","85034-7209","USA","Maricopa","602","04013","6200","","MST","N","33.4378","33.417094","-112.0211","-112.014169","(866) 766-0766","","","","http://www.phoenix.edu/","Private (For Profit)","4 Years","City: Large","No","380232","59 to 1",""
"224","University of Phoenix-Phoenix-Hohokam Campus","Less than one year certificate;Bachelor's degree;Postbaccalaureate certificate;Master's degree;Post-master's certificate","4635 E Elwood St","Phoenix","AZ","85040","85040-1958","USA","Maricopa","602","04013","6200","","MST","N","33.4044","33.4124383","-112.0280","-111.9801683","(480) 557-2000","","","","http://www.phoenix.edu","Private (For Profit)","4 Years","Suburb: Large","No","5956","14 to 1",""
"225","University of Phoenix-Southern Arizona Campus","Bachelor's degree;Master's degree;Post-master's certificate","300 S Craycroft Rd","Tucson","AZ","85711","85711-4574","USA","Pima","520","04019","8520","","MST","N","32.2154","32.217514","-110.8848","-110.875834","(520) 881-6512","","","","http://www.phoenix.edu","Private (For Profit)","4 Years","City: Large","No","2465","20 to 1",""
"226","Western International University","Associate's degree;Bachelor's degree;Master's degree","9215 N Black Canyon Hwy","Phoenix","AZ","85021","","USA","Maricopa","602","04013","6200","","MST","N","33.5597","33.57026","-112.0949","-112.116126","(602) 943-2311","","","","http://www.west.edu","Private (For Profit)","4 Years","City: Large","No","2927","30 to 1",""
"227","Yavapai College","Less than one year certificate;One but less than two years certificate;Associate's degree","1100 E Sheldon St","Prescott","AZ","86301","","USA","Yavapai","928","04025","","","MST","N","34.6294","34.5453696","-112.4304","-112.4570183","(928) 445-7300","","","","http://www.YC.EDU","Public","2 Years","City: Small","Yes","8276","21 to 1",""
"228","ABC Beauty College Inc","Less than one year certificate;One but less than two years certificate","2708 Pine St","Arkadelphia","AR","71923","","USA","Clark","870","05019","","","CST","Y","34.0941","34.12268","-93.0475","-93.08187","(870) 246-6726","","","","http://www.arkadelphiabeautycollege.com","Private (For Profit)","Under 2 Years","Town: Distant","No","55","9 to 1",""
"229","Academy of Salon and Spa","Less than one year certificate;One but less than two years certificate","311 S 16th St","Fort Smith","AR","72901","","USA","Sebastian","479","05131","2720","","CST","Y","35.3642","35.3811599","-94.4158","-94.4163128","(479) 782-5059","","","","http://www.mellies.org","Private (For Profit)","Under 2 Years","City: Small","No","81","7 to 1",""
"230","Arkansas Baptist College","Associate's degree;Bachelor's degree","1621 Dr Martin Luther King Dr","Little Rock","AR","72202","72202-6099","USA","Pulaski","501","05119","4400","","CST","Y","34.7344","34.7349356","-92.2557","-92.2894516","(501) 370-4000","","","","http://www.arkansasbaptist.edu","Private (Not For Profit)","Under 2 Years","City: Midsize","Yes","640","15 to 1",""
"231","Arkansas Beauty College","Less than one year certificate;One but less than two years certificate","109 N Commerce Ave","Russellville","AR","72801","","USA","Pope","479","05115","","","CST","Y","35.2872","35.2790062","-93.0945","-93.1352423","(479) 968-3075","","","","","Private (For Profit)","Under 2 Years","Town: Remote","No","59","10 to 1",""
"232","Arkansas Beauty School","Less than one year certificate;One but less than two years certificate","1061 Markham St","Conway","AR","72032","","USA","Faulkner","501","05045","4400","","CST","Y","35.0822","35.093128","-92.3660","-92.440282","(501) 329-8303","","","","","Private (For Profit)","Under 2 Years","Town: Fringe","No","59","15 to 1",""
"233","Arkansas Beauty School","Less than one year certificate;One but less than two years certificate","5108 Baseline Rd","Little Rock","AR","72209","","USA","Pulaski","501","05119","4400","","CST","Y","34.6728","34.66967","-92.3679","-92.334816","(501) 562-5673","","","","","Private (For Profit)","Under 2 Years","City: Midsize","No","49","11 to 1",""
"234","Arkansas College of Barbering and Hair Design","Less than one year certificate;One but less than two years certificate","2500 S State St","Little Rock","AR","72206","","USA","Pulaski","501","05119","4400","","CST","Y","34.6572","34.724291","-92.2532","-92.282839","(501) 374-9696","","","","","Private (For Profit)","Under 2 Years","City: Small","No","","",""
"235","Arkansas College of Barbering and Hair Design","Less than one year certificate;One but less than two years certificate","200 E Washington Ave","North Little Rock","AR","72114","","USA","Pulaski","501","05119","4400","","CST","Y","34.7664","34.7539833","-92.2550","-92.266475","(501) 376-9696","","","","","Private (For Profit)","Under 2 Years","City: Small","No","127","20 to 1",""
"236","Arkansas Northeastern College","Less than one year certificate;One but less than two years certificate;Associate's degree","2501 S Division St","Blytheville","AR","72315","72316-1109","USA","Mississippi","870","05093","","","CST","Y","35.9221","35.8967876","-89.9037","-89.9186608","(870) 762-1020","1114","","","http://www.anc.edu","Public","2 Years","Town: Remote","No","1914","17 to 1",""
"237","Arkansas State University-Beebe","Less than one year certificate;One but less than two years certificate;Associate's degree","1000 W Iowa St","Beebe","AR","72012","72012-1000","USA","White","501","05145","","","CST","Y","35.1238","35.0702142","-91.9422","-91.8944993","(501) 882-3600","","","","http://www.asub.edu","Public","2 Years","Town: Fringe","Yes","4491","19 to 1",""
"238","Arkansas State University-Main Campus","One but less than two years certificate;Associate's degree;Two but less than 4 years certificate;Bachelor's degree;Postbaccalaureate certificate;Master's degree;Post-master's certificate","2105 Aggie Rd","Jonesboro","AR","72401","","USA","Craighead","870","05031","3700","","CST","Y","35.8107","35.8427956","-90.7399","-90.6818907","(870) 972-2100","","","","http://www.www2.astate.edu","Public","4 Years","City: Small","Yes","12156","17 to 1",""
"239","Arkansas State University-Mountain Home","Less than one year certificate;One but less than two years certificate;Associate's degree","1600 S College St","Mountain Home","AR","72653","","USA","Baxter","870","05005","","","CST","Y","36.2902","36.3219277","-92.3897","-92.381053","(870) 508-6100","","","","http://www.asumh.edu","Public","2 Years","Town: Remote","No","1517","22 to 1",""
"240","Arkansas State University-Newport","Less than one year certificate;One but less than two years certificate;Associate's degree","Victory Blvd","Newport","AR","72112","","USA","Jackson","870","05067","","","CST","Y","35.5678","35.6397391","-91.2073","-91.1925493","(870) 512-7800","","","","http://www.asun.edu","Public","2 Years","Rural: Distant","No","2037","19 to 1",""
"241","Arkansas Tech University","Less than one year certificate;One but less than two years certificate;Associate's degree;Bachelor's degree;Master's degree;Post-master's certificate","1509 N Boulder Ave","Russellville","AR","72801","72801-2222","USA","Pope","479","05115","","","CST","Y","35.2872","35.2935046","-93.0945","-93.1346485","(479) 968-0389","","","","http://www.atu.edu","Public","4 Years","Town: Remote","Yes","8814","18 to 1",""
"242","Arthur's Beauty College Inc","Less than one year certificate;One but less than two years certificate","2600 John Harden Dr","Jacksonville","AR","72076","","USA","Pulaski","501","05119","4400","","CST","Y","34.9092","34.891615","-92.1561","-92.102718","(501) 982-8987","","","","http://www.arthursbeautycollege.com","Private (For Profit)","Under 2 Years","Rural: Fringe","No","74","15 to 1",""
"243","Arthur's Beauty College Inc-Fort Smith","Less than one year certificate;One but less than two years certificate","2000 N B St","Fort Smith","AR","72901","72901-3342","USA","Sebastian","479","05131","2720","","CST","Y","35.3642","35.380269","-94.4158","-94.4109605","(479) 783-6245","","","","http://www.arthursbeautycollege.com","Private (For Profit)","Under 2 Years","City: Small","No","40","13 to 1",""
"244","Arthur's Beauty School Inc-Conway","Less than one year certificate;One but less than two years certificate","2320 Washington Ave","Conway","AR","72032","","USA","Faulkner","501","05045","4400","","CST","Y","35.0822","35.1094601","-92.3660","-92.4456905","(501) 329-7770","","","","http://www.arthursbeautycollege.com","Private (For Profit)","Under 2 Years","Town: Fringe","No","58","17 to 1",""
"245","Arthur's Beauty School Inc-Pine Bluff","Less than one year certificate;One but less than two years certificate","2710 Commerce Cir","Pine Bluff","AR","71601","","USA","Jefferson","870","05069","6240","","CST","Y","34.1930","34.2221954","-91.9403","-91.9753344","(870) 534-0498","","","","http://www.arthursbeautycollege.com","Private (For Profit)","Under 2 Years","City: Small","No","33","12 to 1",""
"246","Askins Vo-Tech","Less than one year certificate","7716 U.S. 271","Fort Smith","AR","72908","","USA","Sebastian","479","05131","2720","","CST","Y","35.3066","35.3119358","-94.4123","-94.4226727","(479) 646-4803","","","","","Private (For Profit)","Under 2 Years","City: Small","No","35","11 to 1",""
"247","Baptist Health Schools-Little Rock","One but less than two years certificate;Two but less than 4 years certificate","Col Glenn Rd","Little Rock","AR","72210","72210-2820","USA","Pulaski","501","05119","4400","","CST","Y","34.7178","34.729871","-92.5084","-92.480431","(501) 202-6200","","","","http://www.bhslr.edu","Private (Not For Profit)","2 Years","City: Midsize","No","1022","14 to 1",""
"248","Bee Jays Academy","Less than one year certificate;One but less than two years certificate","130 W Main St","Batesville","AR","72501","","USA","Independence","870","05063","","","CST","Y","35.8261","35.769682","-91.6574","-91.6545239","(870) 793-3898","","","","","Private (For Profit)","Under 2 Years","","No","","",""
"249","Bee Jays Academy","Less than one year certificate;One but less than two years certificate","1907 Hinson Loop Rd","Little Rock","AR","72212","","USA","Pulaski","501","05119","4400","","CST","Y","34.8086","34.77085","-92.4411","-92.4059577","(501) 224-2442","","","","http://www.bjacademy.net","Private (For Profit)","Under 2 Years","City: Midsize","No","37","11 to 1",""
"250","Black River Technical College","Less than one year certificate;One but less than two years certificate;Associate's degree","1410 Arkansas 304 N","Pocahontas","AR","72455","","USA","Randolph","870","05121","","","CST","Y","36.3332","36.2526481","-91.0542","-90.9550863","(870) 248-4000","","","","http://www.blackrivertech.edu","Public","2 Years","Rural: Fringe","No","2239","21 to 1",""
"251","Blue Cliff College","Less than one year certificate","3448 N College Ave","Fayetteville","AR","72703","","USA","Washington","479","05143","2580","","CST","Y","36.1065","36.113926","-94.2715","-94.1442469","(479) 442-2914","","","","http://www.bluecliffcollege.com","Private (For Profit)","Under 2 Years","","No","83","17 to 1",""
"252","Bryan College","One but less than two years certificate;Associate's degree","3704 W Walnut St","Rogers","AR","72758","","USA","Benton","479","05007","2580","","CST","Y","36.3033","36.334093","-94.1255","-94.169915","(479) 899-6644","","","","http://www.bryancolleges.edu","Private (For Profit)","2 Years","","No","159","9 to 1",""
"253","Career Academy of Hair Design","Less than one year certificate;One but less than two years certificate","346 E Robinson Ave","Springdale","AR","72764","72764-7128","USA","Washington","479","05143","2580","","CST","Y","36.1771","36.1671832","-94.0897","-94.1318619","(479) 756-6060","","","","http://www.cahdspringdale.com","Private (For Profit)","Under 2 Years","City: Small","No","232","16 to 1",""
"254","Career Academy of Hair Design-Rogers","Less than one year certificate;One but less than two years certificate","2100 W Hudson Rd #1","Rogers","AR","72756","72756-2102","USA","Benton","479","05007","2580","","CST","Y","36.3725","36.3557344","-94.0691","-94.148571","(479) 986-0775","","","","http://www.cahdspringdale.com","Private (For Profit)","Under 2 Years","City: Small","No","","",""
"255","Career Academy of Hair Design-Siloam Springs","Less than one year certificate;One but less than two years certificate","821 S Mt Olive St","Siloam Springs","AR","72761","72761-4217","USA","Benton","479","05007","2580","","CST","Y","36.1693","36.1770068","-94.4580","-94.5413935","(479) 238-0440","","","","http://www.cahdspringdale.com","Private (For Profit)","Under 2 Years","City: Small","No","","",""
"256","CC's Cosmetology College-Texarkana","Less than one year certificate;One but less than two years certificate","324 Hickory St","Texarkana","AR","71854","","USA","Miller","870","05091","8360","","CST","Y","33.4765","33.427458","-93.9191","-94.0341099","(918) 234-9444","","","","http://www.ccscosmetology.edu","Private (For Profit)","Under 2 Years","City: Large","No","","",""
"257","Central Baptist College","Associate's degree;Bachelor's degree","1501 College Ave","Conway","AR","72034","","USA","Faulkner","501","05045","4400","","CST","Y","35.0886","35.084465","-92.4419","-92.444715","(501) 329-6872","","","","http://www.cbc.edu","Private (Not For Profit)","4 Years","Town: Fringe","Yes","625","21 to 1",""
"258","Cossatot Community College of the University of Arkansas","Less than one year certificate;One but less than two years certificate;Associate's degree","College","Gillham","AR","71841","","USA","Sevier","870","05133","","","CST","Y","34.1479","34.1710027","-94.3123","-94.3173089","(870) 584-4471","","","","http://www.cccua.edu","Public","2 Years","Town: Remote","No","1458","15 to 1",""
"259","Crossett School of Cosmetology","Less than one year certificate;One but less than two years certificate","121 Pine St","Crossett","AR","71635","","USA","Ashley","870","05003","","","CST","Y","33.1917","33.134037","-91.9836","-91.959957","(870) 304-2545","","","","","Private (For Profit)","Under 2 Years","Town: Distant","No","30","13 to 1",""
"260","Crowley's Ridge College","Associate's degree;Bachelor's degree","100 College Dr","Paragould","AR","72450","","USA","Greene","870","05055","","","CST","Y","36.0612","36.0664368","-90.5641","-90.5845034","(870) 236-6901","","","","http://www.crc.edu/","Private (Not For Profit)","Under 2 Years","Rural: Fringe","Yes","172","10 to 1",""
